{
"type": "FeatureCollection",
"crs": { "type": "name", "properties": { "name": "urn:ogc:def:crs:OGC:1.3:CRS84" } },
"features": [
{ "type": "Feature", "properties": { "Provider Number": "010001", "FYB": "01-OCT-17", "FYE": "30-SEP-18", "STATUS": "As Submitted", "CTRL_TYPE": 9, "HOSP10_Name": "SOUTHEAST HEALTH MEDICAL CENTER", "Street_Addr": "1108 ROSS CLARK CIRCLE", "PO_Box": "6987", "CITY_NAME": "DOTHAN", "ST_ABBR": "AL", "ZIP_CODE": "36301", "COUNTY_NAME": "HOUSTON", "source": "google" }, "geometry": { "type": "Point", "coordinates": [ -85.3625287, 31.2159117 ] } },
{ "type": "Feature", "properties": { "Provider Number": "010005", "FYB": "01-OCT-17", "FYE": "30-SEP-18", "STATUS": "As Submitted", "CTRL_TYPE": 9, "HOSP10_Name": "MARSHALL MEDICAL CENTER - SOUTH", "Street_Addr": "2505 U.S. HIGHWAY 431", "PO_Box": null, "CITY_NAME": "BOAZ", "ST_ABBR": "AL", "ZIP_CODE": "35957", "COUNTY_NAME": "MARSHALL", "source": "google" }, "geometry": { "type": "Point", "coordinates": [ -86.1600594, 34.2213959 ] } },
{ "type": "Feature", "properties": { "Provider Number": "010006", "FYB": "01-JUL-18", "FYE": "30-JUN-19", "STATUS": "As Submitted", "CTRL_TYPE": 4, "HOSP10_Name": "NORTH ALABAMA MEDICAL CENTER", "Street_Addr": "1701 VETERANS DRIVE", "PO_Box": "818", "CITY_NAME": "FLORENCE", "ST_ABBR": "AL", "ZIP_CODE": "35630", "COUNTY_NAME": "LAUDERDALE", "source": "google" }, "geometry": { "type": "Point", "coordinates": [ -87.650945299999989, 34.8043939 ] } },
{ "type": "Feature", "properties": { "Provider Number": "010007", "FYB": "01-OCT-17", "FYE": "30-SEP-18", "STATUS": "As Submitted", "CTRL_TYPE": 9, "HOSP10_Name": "MIZELL MEMORIAL HOSPITAL", "Street_Addr": "702 MAIN STREET", "PO_Box": "429", "CITY_NAME": "OPP", "ST_ABBR": "AL", "ZIP_CODE": "36462", "COUNTY_NAME": "COVINGTON", "source": "google" }, "geometry": { "type": "Point", "coordinates": [ -86.2541667, 31.2919828 ] } },
{ "type": "Feature", "properties": { "Provider Number": "010008", "FYB": "01-JAN-18", "FYE": "31-DEC-18", "STATUS": "As Submitted", "CTRL_TYPE": 4, "HOSP10_Name": "CRENSHAW COMMUNITY HOSPITAL", "Street_Addr": "CRENSHAW COMMUNITY HOSPITAL", "PO_Box": "101 HOSPITAL CIRCLE", "CITY_NAME": "LUVERNE", "ST_ABBR": "AL", "ZIP_CODE": "36049", "COUNTY_NAME": "CRENSHAW", "source": "google" }, "geometry": { "type": "Point", "coordinates": [ -86.2647235, 31.6936146 ] } },
{ "type": "Feature", "properties": { "Provider Number": "010009", "FYB": "01-FEB-11", "FYE": "31-JAN-12", "STATUS": "Reopened", "CTRL_TYPE": 4, "HOSP10_Name": "HARTSELLE MEDICAL CENTER", "Street_Addr": "201 PINE STREET NW", "PO_Box": null, "CITY_NAME": "HARTSELLE", "ST_ABBR": "AL", "ZIP_CODE": "35640", "COUNTY_NAME": "MORGAN", "source": "google" }, "geometry": { "type": "Point", "coordinates": [ -86.9371792, 34.445309 ] } },
{ "type": "Feature", "properties": { "Provider Number": "010010", "FYB": "01-OCT-10", "FYE": "30-SEP-11", "STATUS": "As Submitted", "CTRL_TYPE": 9, "HOSP10_Name": "MARSHALL MEDICAL CENTER - NORTH", "Street_Addr": "8000 ALABAMA HIGHWAY 69", "PO_Box": null, "CITY_NAME": "GUNTERSVILLE", "ST_ABBR": "AL", "ZIP_CODE": "35976", "COUNTY_NAME": "MARSHALL", "source": "google" }, "geometry": { "type": "Point", "coordinates": [ -86.421254300000015, 34.3649197 ] } },
{ "type": "Feature", "properties": { "Provider Number": "010011", "FYB": "01-JUL-18", "FYE": "30-JUN-19", "STATUS": "As Submitted", "CTRL_TYPE": 1, "HOSP10_Name": "ST. VINCENTS EAST", "Street_Addr": "50 MEDICAL PARK DRIVE EAST", "PO_Box": null, "CITY_NAME": "BIRMINGHAM", "ST_ABBR": "AL", "ZIP_CODE": "35235", "COUNTY_NAME": "JEFFERSON", "source": "google" }, "geometry": { "type": "Point", "coordinates": [ -86.667616099999989, 33.5964547 ] } },
{ "type": "Feature", "properties": { "Provider Number": "010012", "FYB": "01-APR-18", "FYE": "31-MAR-19", "STATUS": "As Submitted", "CTRL_TYPE": 4, "HOSP10_Name": "DEKALB REGIONAL MEDICAL CENTER", "Street_Addr": "200 MEDICAL CENTER DRIVE", "PO_Box": null, "CITY_NAME": "FORT PAYNE", "ST_ABBR": "AL", "ZIP_CODE": "35967", "COUNTY_NAME": "DEKALB", "source": "google" }, "geometry": { "type": "Point", "coordinates": [ -85.7550138, 34.4419753 ] } },
{ "type": "Feature", "properties": { "Provider Number": "010015", "FYB": "01-APR-11", "FYE": "15-AUG-11", "STATUS": "Settled", "CTRL_TYPE": 5, "HOSP10_Name": "SOUTHWEST ALABAMA MEDICAL CENTER", "Street_Addr": "33400 HIGHWAY 43 NORTH", "PO_Box": null, "CITY_NAME": "THOMASVILLE", "ST_ABBR": "AL", "ZIP_CODE": "36784", "COUNTY_NAME": "CLARKE", "source": "google" }, "geometry": { "type": "Point", "coordinates": [ -87.7372685, 31.9311575 ] } },
{ "type": "Feature", "properties": { "Provider Number": "010016", "FYB": "01-JAN-18", "FYE": "31-DEC-18", "STATUS": "As Submitted", "CTRL_TYPE": 1, "HOSP10_Name": "SHELBY BAPTIST MEDICAL CENTER", "Street_Addr": "1000 FIRST STREET NORTH", "PO_Box": null, "CITY_NAME": "ALABASTER", "ST_ABBR": "AL", "ZIP_CODE": "35007", "COUNTY_NAME": "SHELBY", "source": "google" }, "geometry": { "type": "Point", "coordinates": [ -86.812933, 33.252859 ] } },
{ "type": "Feature", "properties": { "Provider Number": "010018", "FYB": "01-OCT-17", "FYE": "30-SEP-18", "STATUS": "As Submitted", "CTRL_TYPE": 10, "HOSP10_Name": "CALLAHAN EYE FOUNDATION HOSP", "Street_Addr": "1720 UNIVERSITY BOULEVARD", "PO_Box": null, "CITY_NAME": "BIRMINGHAM", "ST_ABBR": "AL", "ZIP_CODE": "35233", "COUNTY_NAME": "JEFFERSON", "source": "google" }, "geometry": { "type": "Point", "coordinates": [ -86.8023997, 33.503761 ] } },
{ "type": "Feature", "properties": { "Provider Number": "010019", "FYB": "01-OCT-17", "FYE": "30-SEP-18", "STATUS": "As Submitted", "CTRL_TYPE": 9, "HOSP10_Name": "HELEN KELLER HOSPITAL", "Street_Addr": "1300 SOUTH MONTGOMERY AVENUE", "PO_Box": "610", "CITY_NAME": "SHEFFIELD", "ST_ABBR": "AL", "ZIP_CODE": "35660", "COUNTY_NAME": "COLBERT", "source": "google" }, "geometry": { "type": "Point", "coordinates": [ -87.6999566, 34.7460601 ] } },
{ "type": "Feature", "properties": { "Provider Number": "010021", "FYB": "01-OCT-17", "FYE": "30-SEP-18", "STATUS": "As Submitted", "CTRL_TYPE": 9, "HOSP10_Name": "DALE MEDICAL CENTER", "Street_Addr": "126 HOSPITAL", "PO_Box": null, "CITY_NAME": "OZARK", "ST_ABBR": "AL", "ZIP_CODE": "36360", "COUNTY_NAME": "DALE", "source": "google" }, "geometry": { "type": "Point", "coordinates": [ -85.6319801, 31.4513601 ] } },
{ "type": "Feature", "properties": { "Provider Number": "010022", "FYB": "01-JUN-18", "FYE": "30-JUN-19", "STATUS": "As Submitted", "CTRL_TYPE": 4, "HOSP10_Name": "CHEROKEE MEDICAL CENTER", "Street_Addr": "100 NORTHWOOD DRIVE", "PO_Box": null, "CITY_NAME": "CENTRE", "ST_ABBR": "AL", "ZIP_CODE": "35960", "COUNTY_NAME": "CHEROKEE", "source": "google" }, "geometry": { "type": "Point", "coordinates": [ -85.6508729, 34.1615289 ] } },
{ "type": "Feature", "properties": { "Provider Number": "010023", "FYB": "01-JUL-18", "FYE": "30-JUN-19", "STATUS": "As Submitted", "CTRL_TYPE": 11, "HOSP10_Name": "BAPTIST MEDICAL CENTER SOUTH", "Street_Addr": "2105  EAST SOUTH BOULEVARD", "PO_Box": "11010", "CITY_NAME": "MONTGOMERY", "ST_ABBR": "AL", "ZIP_CODE": "36116", "COUNTY_NAME": "MONTGOMERY", "source": "google" }, "geometry": { "type": "Point", "coordinates": [ -86.277324, 32.3279453 ] } },
{ "type": "Feature", "properties": { "Provider Number": "010024", "FYB": "01-JAN-18", "FYE": "31-DEC-18", "STATUS": "As Submitted", "CTRL_TYPE": 2, "HOSP10_Name": "JACKSON HOSPITAL AND CLINIC  INC", "Street_Addr": "1725 PINE STREET", "PO_Box": null, "CITY_NAME": "MONTGOMERY", "ST_ABBR": "AL", "ZIP_CODE": "36106-1109", "COUNTY_NAME": "MONTGOMERY", "source": "google" }, "geometry": { "type": "Point", "coordinates": [ -86.2853492, 32.367083099999988 ] } },
{ "type": "Feature", "properties": { "Provider Number": "010025", "FYB": "01-JUL-13", "FYE": "31-JAN-14", "STATUS": "Settled", "CTRL_TYPE": 2, "HOSP10_Name": "GEORGE H. LANIER HOSPITAL", "Street_Addr": "4800 48TH STREET", "PO_Box": null, "CITY_NAME": "VALLEY", "ST_ABBR": "AL", "ZIP_CODE": "36854", "COUNTY_NAME": "CHAMBERS", "source": "google" }, "geometry": { "type": "Point", "coordinates": [ -85.1686748, 32.8246546 ] } },
{ "type": "Feature", "properties": { "Provider Number": "010027", "FYB": "01-JUL-12", "FYE": "04-FEB-13", "STATUS": "As Submitted", "CTRL_TYPE": 12, "HOSP10_Name": "ELBA GENERAL HOSPITAL", "Street_Addr": "987 DRAYTON STREET", "PO_Box": null, "CITY_NAME": "ELBA", "ST_ABBR": "AL", "ZIP_CODE": "35323", "COUNTY_NAME": "COFFEE", "source": "google" }, "geometry": { "type": "Point", "coordinates": [ -86.0768699, 31.4282633 ] } },
{ "type": "Feature", "properties": { "Provider Number": "010029", "FYB": "01-OCT-17", "FYE": "30-SEP-18", "STATUS": "As Submitted", "CTRL_TYPE": 2, "HOSP10_Name": "EAST ALABAMA MEDICAL CENTER", "Street_Addr": "2000 PEPPERELL PKWY", "PO_Box": null, "CITY_NAME": "OPELIKA", "ST_ABBR": "AL", "ZIP_CODE": "36802", "COUNTY_NAME": "LEE", "source": "google" }, "geometry": { "type": "Point", "coordinates": [ -85.4046467, 32.6389347 ] } },
{ "type": "Feature", "properties": { "Provider Number": "010032", "FYB": "01-JUL-18", "FYE": "08-JAN-19", "STATUS": "As Submitted", "CTRL_TYPE": 2, "HOSP10_Name": "TANNER MEDICAL CENTER-EAST ALABAMA", "Street_Addr": "1032 MAIN STREET SOUTH", "PO_Box": null, "CITY_NAME": "WEDOWEE", "ST_ABBR": "AL", "ZIP_CODE": "36278", "COUNTY_NAME": "RANDOLPH", "source": "google" }, "geometry": { "type": "Point", "coordinates": [ -85.4803505, 33.2956504 ] } },
{ "type": "Feature", "properties": { "Provider Number": "010033", "FYB": "01-OCT-17", "FYE": "30-SEP-18", "STATUS": "As Submitted", "CTRL_TYPE": 10, "HOSP10_Name": "UNIVERSITY OF ALABAMA HOSPITAL", "Street_Addr": "619 SOUTH 19TH STREET", "PO_Box": null, "CITY_NAME": "BIRMINGHAM", "ST_ABBR": "AL", "ZIP_CODE": "35233", "COUNTY_NAME": "JEFFERSON", "source": "google" }, "geometry": { "type": "Point", "coordinates": [ -86.8031287, 33.5066166 ] } },
{ "type": "Feature", "properties": { "Provider Number": "010034", "FYB": "01-OCT-17", "FYE": "30-SEP-18", "STATUS": "As Submitted", "CTRL_TYPE": 2, "HOSP10_Name": "COMMUNITY HOSPITAL INC.", "Street_Addr": "805 FRIENDSHIP DRIVE", "PO_Box": null, "CITY_NAME": "TALLASSEE", "ST_ABBR": "AL", "ZIP_CODE": "36078", "COUNTY_NAME": "ELMORE", "source": "google" }, "geometry": { "type": "Point", "coordinates": [ -85.912363, 32.534053 ] } },
{ "type": "Feature", "properties": { "Provider Number": "010035", "FYB": "01-JUL-18", "FYE": "30-JUN-19", "STATUS": "As Submitted", "CTRL_TYPE": 9, "HOSP10_Name": "CULLMAN REGIONAL", "Street_Addr": "1912 ALABAMA HIGHWAY 157", "PO_Box": null, "CITY_NAME": "CULLMAN", "ST_ABBR": "AL", "ZIP_CODE": "35056", "COUNTY_NAME": "CULLMAN", "source": "google" }, "geometry": { "type": "Point", "coordinates": [ -86.8054974, 34.2010179 ] } },
{ "type": "Feature", "properties": { "Provider Number": "010036", "FYB": "01-APR-18", "FYE": "31-MAR-19", "STATUS": "As Submitted", "CTRL_TYPE": 4, "HOSP10_Name": "ANDALUSIA REGIONAL HOSPITAL", "Street_Addr": "849 THREE NOTCH STREET", "PO_Box": null, "CITY_NAME": "ANDALUSIA", "ST_ABBR": "AL", "ZIP_CODE": "36420", "COUNTY_NAME": "COVINGTON", "source": "google" }, "geometry": { "type": "Point", "coordinates": [ -86.4948273, 31.2962894 ] } },
{ "type": "Feature", "properties": { "Provider Number": "010038", "FYB": "01-OCT-17", "FYE": "30-SEP-18", "STATUS": "As Submitted", "CTRL_TYPE": 13, "HOSP10_Name": "STRINGFELLOW MEMORIAL HOSPITAL", "Street_Addr": "301 EAST 18TH STREET", "PO_Box": "P.O. BOX", "CITY_NAME": "ANNISTON", "ST_ABBR": "AL", "ZIP_CODE": "36207", "COUNTY_NAME": "CALHOUN", "source": "google" }, "geometry": { "type": "Point", "coordinates": [ -85.8235966, 33.6682403 ] } },
{ "type": "Feature", "properties": { "Provider Number": "010039", "FYB": "01-JUL-18", "FYE": "30-JUN-19", "STATUS": "As Submitted", "CTRL_TYPE": 13, "HOSP10_Name": "HUNTSVILLE HOSPITAL", "Street_Addr": "101 SIVLEY ROAD", "PO_Box": null, "CITY_NAME": "HUNTSVILLE", "ST_ABBR": "AL", "ZIP_CODE": "35801", "COUNTY_NAME": "MADISON", "source": "google" }, "geometry": { "type": "Point", "coordinates": [ -86.580603599999989, 34.7210887 ] } },
{ "type": "Feature", "properties": { "Provider Number": "010040", "FYB": "01-OCT-17", "FYE": "30-SEP-18", "STATUS": "As Submitted", "CTRL_TYPE": 4, "HOSP10_Name": "GADSDEN REGIONAL MEDICAL CENTER", "Street_Addr": "1007 GOODYEAR AVENUE", "PO_Box": null, "CITY_NAME": "GADSDEN", "ST_ABBR": "AL", "ZIP_CODE": "35903", "COUNTY_NAME": "ETOWAH", "source": "google" }, "geometry": { "type": "Point", "coordinates": [ -85.965891, 34.007668 ] } },
{ "type": "Feature", "properties": { "Provider Number": "010043", "FYB": "01-JUL-11", "FYE": "30-JUN-12", "STATUS": "Reopened", "CTRL_TYPE": 4, "HOSP10_Name": "CHILTON MEDICAL CENTER", "Street_Addr": "1010 LAY DAM ROAD", "PO_Box": null, "CITY_NAME": "CLANTON", "ST_ABBR": "AL", "ZIP_CODE": "35045", "COUNTY_NAME": "CHILTON", "source": "google" }, "geometry": { "type": "Point", "coordinates": [ -86.6228467, 32.852511 ] } },
{ "type": "Feature", "properties": { "Provider Number": "010044", "FYB": "01-OCT-17", "FYE": "30-SEP-18", "STATUS": "As Submitted", "CTRL_TYPE": 2, "HOSP10_Name": "MARION REGIONAL MEDICAL CENTER", "Street_Addr": "1256 MILITARY ST SOUTH", "PO_Box": null, "CITY_NAME": "HAMILTON", "ST_ABBR": "AL", "ZIP_CODE": "35570", "COUNTY_NAME": "MARION", "source": "google" }, "geometry": { "type": "Point", "coordinates": [ -87.9905698, 34.1260041 ] } },
{ "type": "Feature", "properties": { "Provider Number": "010045", "FYB": "01-OCT-17", "FYE": "30-SEP-18", "STATUS": "As Submitted", "CTRL_TYPE": 13, "HOSP10_Name": "FAYETTE MEDICAL CENTER", "Street_Addr": "1653 TEMPLE AVENUE NORTH", "PO_Box": null, "CITY_NAME": "FAYETTE", "ST_ABBR": "AL", "ZIP_CODE": "35555", "COUNTY_NAME": "FAYETTE", "source": "google" }, "geometry": { "type": "Point", "coordinates": [ -87.8242179, 33.7080266 ] } },
{ "type": "Feature", "properties": { "Provider Number": "010046", "FYB": "01-JAN-18", "FYE": "31-DEC-18", "STATUS": "Amended", "CTRL_TYPE": 4, "HOSP10_Name": "RIVERVIEW REGIONAL MEDICAL CENTER", "Street_Addr": "600 SOUTH 3RD STREET", "PO_Box": null, "CITY_NAME": "GADSDEN", "ST_ABBR": "AL", "ZIP_CODE": "35901", "COUNTY_NAME": "ETOWAH", "source": "google" }, "geometry": { "type": "Point", "coordinates": [ -86.0035042, 34.0043479 ] } },
{ "type": "Feature", "properties": { "Provider Number": "010047", "FYB": "01-JAN-18", "FYE": "31-DEC-18", "STATUS": "As Submitted", "CTRL_TYPE": 4, "HOSP10_Name": "GEORGIANA HOSPITAL", "Street_Addr": "515 MIRANDA STREET", "PO_Box": null, "CITY_NAME": "GEORGIANA", "ST_ABBR": "AL", "ZIP_CODE": "36033", "COUNTY_NAME": "BUTLER", "source": "google" }, "geometry": { "type": "Point", "coordinates": [ -86.743051799999989, 31.6363022 ] } },
{ "type": "Feature", "properties": { "Provider Number": "010049", "FYB": "01-JAN-18", "FYE": "31-DEC-18", "STATUS": "As Submitted", "CTRL_TYPE": 4, "HOSP10_Name": "MEDICAL CENTER ENTERPRISE", "Street_Addr": "400 NORTH EDWARDS STREET", "PO_Box": null, "CITY_NAME": "ENTERPRISE", "ST_ABBR": "AL", "ZIP_CODE": "36330", "COUNTY_NAME": "COFFEE", "source": "google" }, "geometry": { "type": "Point", "coordinates": [ -85.8552397, 31.3186824 ] } },
{ "type": "Feature", "properties": { "Provider Number": "010050", "FYB": "01-JUL-12", "FYE": "19-JUN-13", "STATUS": "Settled", "CTRL_TYPE": 1, "HOSP10_Name": "ST. VINCENTS BLOUNT", "Street_Addr": "150 GILBREATH DRIVE", "PO_Box": "1000", "CITY_NAME": "ONEONTA", "ST_ABBR": "AL", "ZIP_CODE": "35121", "COUNTY_NAME": "BLOUNT", "source": "google" }, "geometry": { "type": "Point", "coordinates": [ -86.494432500000016, 33.9320523 ] } },
{ "type": "Feature", "properties": { "Provider Number": "010051", "FYB": "01-OCT-17", "FYE": "30-SEP-18", "STATUS": "As Submitted", "CTRL_TYPE": 9, "HOSP10_Name": "GREENE COUNTY HOSPITAL", "Street_Addr": "509 WILSON AVENUE", "PO_Box": null, "CITY_NAME": "EUTAW", "ST_ABBR": "AL", "ZIP_CODE": "35462", "COUNTY_NAME": "GREENE", "source": "google" }, "geometry": { "type": "Point", "coordinates": [ -87.8902868, 32.8430658 ] } },
{ "type": "Feature", "properties": { "Provider Number": "010052", "FYB": "01-JAN-18", "FYE": "31-DEC-18", "STATUS": "As Submitted", "CTRL_TYPE": 5, "HOSP10_Name": "LAKE MARTIN COMMUNITY HOSPITAL", "Street_Addr": "1231 SOUTH STREET", "PO_Box": null, "CITY_NAME": "DADEVILLE", "ST_ABBR": "AL", "ZIP_CODE": "36853", "COUNTY_NAME": "TALLAPOOSA", "source": "google" }, "geometry": { "type": "Point", "coordinates": [ -85.7410034, 32.8186652 ] } },
{ "type": "Feature", "properties": { "Provider Number": "010054", "FYB": "01-JAN-13", "FYE": "31-DEC-13", "STATUS": "Settled", "CTRL_TYPE": 8, "HOSP10_Name": "PARKWAY MEDICAL CENTER", "Street_Addr": "1874 BELTLINE ROAD S.W.", "PO_Box": null, "CITY_NAME": "DECATUR", "ST_ABBR": "AL", "ZIP_CODE": "35601", "COUNTY_NAME": "MORGAN", "source": "google" }, "geometry": { "type": "Point", "coordinates": [ -87.0161608, 34.5772599 ] } },
{ "type": "Feature", "properties": { "Provider Number": "010055", "FYB": "01-OCT-17", "FYE": "30-SEP-18", "STATUS": "As Submitted", "CTRL_TYPE": 4, "HOSP10_Name": "FLOWERS HOSPITAL", "Street_Addr": "4370 WEST MAIN STREET", "PO_Box": "6907", "CITY_NAME": "DOTHAN", "ST_ABBR": "AL", "ZIP_CODE": "36302", "COUNTY_NAME": "HOUSTON", "source": "google" }, "geometry": { "type": "Point", "coordinates": [ -85.4565787, 31.2378487 ] } },
{ "type": "Feature", "properties": { "Provider Number": "010056", "FYB": "01-JUL-18", "FYE": "30-JUN-19", "STATUS": "As Submitted", "CTRL_TYPE": 1, "HOSP10_Name": "ST VINCENTS BIRMINGHAM", "Street_Addr": "810 ST VINCENTS DRIVE", "PO_Box": null, "CITY_NAME": "BIRMINGHAM", "ST_ABBR": "AL", "ZIP_CODE": "35205", "COUNTY_NAME": "JEFFERSON", "source": "google" }, "geometry": { "type": "Point", "coordinates": [ -86.7883292, 33.5076708 ] } },
{ "type": "Feature", "properties": { "Provider Number": "010058", "FYB": "01-OCT-17", "FYE": "30-SEP-18", "STATUS": "As Submitted", "CTRL_TYPE": 9, "HOSP10_Name": "BIBB MEDICAL CENTER", "Street_Addr": "165 PIERSON AVENUE", "PO_Box": null, "CITY_NAME": "CENTREVILLE", "ST_ABBR": "AL", "ZIP_CODE": "35042", "COUNTY_NAME": "BIBB", "source": "google" }, "geometry": { "type": "Point", "coordinates": [ -87.1481567, 32.9512581 ] } },
{ "type": "Feature", "properties": { "Provider Number": "010059", "FYB": "01-OCT-17", "FYE": "30-SEP-18", "STATUS": "As Submitted", "CTRL_TYPE": 4, "HOSP10_Name": "LAWRENCE MEDICAL CENTER", "Street_Addr": "202 HOSPITAL STREET", "PO_Box": null, "CITY_NAME": "MOULTON", "ST_ABBR": "AL", "ZIP_CODE": "35650", "COUNTY_NAME": "LAWRENCE", "source": "google" }, "geometry": { "type": "Point", "coordinates": [ -87.2853194, 34.4833582 ] } },
{ "type": "Feature", "properties": { "Provider Number": "010061", "FYB": "01-OCT-17", "FYE": "30-SEP-18", "STATUS": "As Submitted", "CTRL_TYPE": 13, "HOSP10_Name": "HIGHLANDS MEDICAL CENTER", "Street_Addr": "380 WOOD COVE ROAD", "PO_Box": "1050", "CITY_NAME": "SCOTTSBORO", "ST_ABBR": "AL", "ZIP_CODE": "35768", "COUNTY_NAME": "JACKSON", "source": "google" }, "geometry": { "type": "Point", "coordinates": [ -86.0470241, 34.6623614 ] } },
{ "type": "Feature", "properties": { "Provider Number": "010062", "FYB": "01-OCT-17", "FYE": "30-SEP-18", "STATUS": "As Submitted", "CTRL_TYPE": 9, "HOSP10_Name": "WIREGRASS MEDICAL CENTER", "Street_Addr": "1200 WEST MAPLE STREET", "PO_Box": null, "CITY_NAME": "GENEVA", "ST_ABBR": "AL", "ZIP_CODE": "36340", "COUNTY_NAME": "GENEVA", "source": "google" }, "geometry": { "type": "Point", "coordinates": [ -85.8923041, 31.0488668 ] } },
{ "type": "Feature", "properties": { "Provider Number": "010065", "FYB": "01-JAN-18", "FYE": "31-DEC-18", "STATUS": "As Submitted", "CTRL_TYPE": 6, "HOSP10_Name": "RUSSELL MEDICAL CENTER", "Street_Addr": "3316 HIGHWAY 280", "PO_Box": "939", "CITY_NAME": "ALEXANDER CITY", "ST_ABBR": "AL", "ZIP_CODE": "35010", "COUNTY_NAME": "TALLAPOOSA", "source": "google" }, "geometry": { "type": "Point", "coordinates": [ -85.970014, 32.930604 ] } },
{ "type": "Feature", "properties": { "Provider Number": "010066", "FYB": "01-JUL-12", "FYE": "30-JUN-13", "STATUS": "Settled", "CTRL_TYPE": 4, "HOSP10_Name": "FLORALA COMMUNITY HOSPITAL", "Street_Addr": "515 EAST 5TH AVENUE", "PO_Box": null, "CITY_NAME": "FLORALA", "ST_ABBR": "AL", "ZIP_CODE": "36442", "COUNTY_NAME": "COVINGTON", "source": "google" }, "geometry": { "type": "Point", "coordinates": [ -86.3052807, 30.9989517 ] } },
{ "type": "Feature", "properties": { "Provider Number": "010069", "FYB": "01-DEC-17", "FYE": "31-DEC-18", "STATUS": "As Submitted", "CTRL_TYPE": 9, "HOSP10_Name": "MEDICAL CENTER BARBOUR", "Street_Addr": "820 WEST WASHINGTON STREET", "PO_Box": null, "CITY_NAME": "EUFAULA", "ST_ABBR": "AL", "ZIP_CODE": "36027", "COUNTY_NAME": "BARBOUR", "source": "google" }, "geometry": { "type": "Point", "coordinates": [ -85.1563565, 31.8887641 ] } },
{ "type": "Feature", "properties": { "Provider Number": "010073", "FYB": "01-OCT-17", "FYE": "30-SEP-18", "STATUS": "As Submitted", "CTRL_TYPE": 9, "HOSP10_Name": "CLAY COUNTY HOSPITAL", "Street_Addr": "83825 HIGHWAY 9", "PO_Box": "1270", "CITY_NAME": "ASHLAND", "ST_ABBR": "AL", "ZIP_CODE": "36251", "COUNTY_NAME": "CLAY", "source": "google" }, "geometry": { "type": "Point", "coordinates": [ -85.823822, 33.2771472 ] } },
{ "type": "Feature", "properties": { "Provider Number": "010078", "FYB": "01-OCT-17", "FYE": "30-SEP-18", "STATUS": "As Submitted", "CTRL_TYPE": 13, "HOSP10_Name": "NORTHEAST ALABAMA REGIONAL MED CTR", "Street_Addr": "400 EAST TENTH STREET", "PO_Box": "2208", "CITY_NAME": "ANNISTON", "ST_ABBR": "AL", "ZIP_CODE": "36202", "COUNTY_NAME": "CALHOUN", "source": "google" }, "geometry": { "type": "Point", "coordinates": [ -85.8228805, 33.656396 ] } },
{ "type": "Feature", "properties": { "Provider Number": "010079", "FYB": "01-JUL-18", "FYE": "30-JUN-19", "STATUS": "As Submitted", "CTRL_TYPE": 13, "HOSP10_Name": "ATHENS LIMESTONE", "Street_Addr": "ATHENS LIMESTONE HOSPITAL", "PO_Box": "999", "CITY_NAME": "ATHENS", "ST_ABBR": "AL", "ZIP_CODE": "35611", "COUNTY_NAME": "LIMESTONE", "source": "google" }, "geometry": { "type": "Point", "coordinates": [ -86.9784952, 34.8041941 ] } },
{ "type": "Feature", "properties": { "Provider Number": "010083", "FYB": "01-OCT-17", "FYE": "30-SEP-18", "STATUS": "As Submitted", "CTRL_TYPE": 4, "HOSP10_Name": "SOUTH BALDWIN REGIONAL MEDICAL CENTE", "Street_Addr": "1613 NORTH MCKENZIE", "PO_Box": null, "CITY_NAME": "FOLEY", "ST_ABBR": "AL", "ZIP_CODE": "36535", "COUNTY_NAME": "BALDWIN", "source": "google" }, "geometry": { "type": "Point", "coordinates": [ -87.6843079, 30.4260938 ] } },
{ "type": "Feature", "properties": { "Provider Number": "010085", "FYB": "01-APR-18", "FYE": "31-MAR-19", "STATUS": "As Submitted", "CTRL_TYPE": 8, "HOSP10_Name": "DECATUR MORGAN - DECATUR CAMPUS", "Street_Addr": "7TH STREET S.E.", "PO_Box": "2239", "CITY_NAME": "DECATUR", "ST_ABBR": "AL", "ZIP_CODE": "35609", "COUNTY_NAME": "MORGAN", "source": "google" }, "geometry": { "type": "Point", "coordinates": [ -86.972491800000014, 34.5906232 ] } },
{ "type": "Feature", "properties": { "Provider Number": "010086", "FYB": "01-JAN-18", "FYE": "31-DEC-18", "STATUS": "As Submitted", "CTRL_TYPE": 2, "HOSP10_Name": "NORTHWEST MEDICAL CENTER", "Street_Addr": "HIGHWAY 78 WEST", "PO_Box": "130", "CITY_NAME": "WINFIELD", "ST_ABBR": "AL", "ZIP_CODE": "35594", "COUNTY_NAME": "MARION", "source": "google" }, "geometry": { "type": "Point", "coordinates": [ -87.8244244, 33.9303197 ] } },
{ "type": "Feature", "properties": { "Provider Number": "010087", "FYB": "01-OCT-17", "FYE": "30-SEP-18", "STATUS": "As Submitted", "CTRL_TYPE": 10, "HOSP10_Name": "USA HEALTH UNIVERSITY HOSPITAL", "Street_Addr": "2451 FILLINGIM STREET", "PO_Box": null, "CITY_NAME": "MOBILE", "ST_ABBR": "AL", "ZIP_CODE": "36617", "COUNTY_NAME": "MOBILE", "source": "google" }, "geometry": { "type": "Point", "coordinates": [ -88.0983646, 30.7077895 ] } },
{ "type": "Feature", "properties": { "Provider Number": "010089", "FYB": "01-JAN-18", "FYE": "31-DEC-18", "STATUS": "As Submitted", "CTRL_TYPE": 1, "HOSP10_Name": "WALKER BAPTIST MEDICAL CENTER", "Street_Addr": "3400 HIGHWAY 78 EAST", "PO_Box": "3547", "CITY_NAME": "JASPER", "ST_ABBR": "AL", "ZIP_CODE": "35502", "COUNTY_NAME": "WALKER", "source": "google" }, "geometry": { "type": "Point", "coordinates": [ -87.2360037, 33.8422088 ] } },
{ "type": "Feature", "properties": { "Provider Number": "010090", "FYB": "01-JUL-18", "FYE": "30-JUN-19", "STATUS": "As Submitted", "CTRL_TYPE": 2, "HOSP10_Name": "PROVIDENCE HOSPITAL", "Street_Addr": "6801 AIRPORT BLVD", "PO_Box": null, "CITY_NAME": "MOBILE", "ST_ABBR": "AL", "ZIP_CODE": "36608", "COUNTY_NAME": "MOBILE", "source": "google" }, "geometry": { "type": "Point", "coordinates": [ -88.1983144, 30.6789455 ] } },
{ "type": "Feature", "properties": { "Provider Number": "010091", "FYB": "01-JUL-18", "FYE": "30-JUN-19", "STATUS": "As Submitted", "CTRL_TYPE": 12, "HOSP10_Name": "GROVE HILL MEMORIAL HOSPITAL", "Street_Addr": "295 SOUTH JACKSON STREET", "PO_Box": "935", "CITY_NAME": "GROVE HILL", "ST_ABBR": "AL", "ZIP_CODE": "36451", "COUNTY_NAME": "CLARKE", "source": "google" }, "geometry": { "type": "Point", "coordinates": [ -87.7760974, 31.6942828 ] } },
{ "type": "Feature", "properties": { "Provider Number": "010092", "FYB": "01-OCT-17", "FYE": "30-SEP-18", "STATUS": "As Submitted", "CTRL_TYPE": 8, "HOSP10_Name": "DCH REGIONAL MEDICAL CENTER", "Street_Addr": "809 UNIVERSITY BLVD EAST", "PO_Box": null, "CITY_NAME": "TUSCALOOSA", "ST_ABBR": "AL", "ZIP_CODE": "35401", "COUNTY_NAME": "TUSCALOOSA", "source": "google" }, "geometry": { "type": "Point", "coordinates": [ -87.5266377, 33.2047297 ] } },
{ "type": "Feature", "properties": { "Provider Number": "010095", "FYB": "01-OCT-17", "FYE": "30-SEP-18", "STATUS": "As Submitted", "CTRL_TYPE": 13, "HOSP10_Name": "HALE COUNTY HOSPITAL", "Street_Addr": "508 GREENE STREET", "PO_Box": null, "CITY_NAME": "GREENSBORO", "ST_ABBR": "AL", "ZIP_CODE": "36744", "COUNTY_NAME": "HALE", "source": "google" }, "geometry": { "type": "Point", "coordinates": [ -87.5869077, 32.6955444 ] } },
{ "type": "Feature", "properties": { "Provider Number": "010097", "FYB": "01-JAN-18", "FYE": "31-DEC-18", "STATUS": "As Submitted", "CTRL_TYPE": 5, "HOSP10_Name": "ELMORE COMMUNITY HOSPITAL", "Street_Addr": "500 HOSPITAL DRIVE", "PO_Box": null, "CITY_NAME": "WETUMPKA", "ST_ABBR": "AL", "ZIP_CODE": "36092", "COUNTY_NAME": "ELMORE", "source": "google" }, "geometry": { "type": "Point", "coordinates": [ -86.1862173, 32.5523801 ] } },
{ "type": "Feature", "properties": { "Provider Number": "010099", "FYB": "01-OCT-17", "FYE": "30-SEP-18", "STATUS": "As Submitted", "CTRL_TYPE": 9, "HOSP10_Name": "D W MCMILLAN MEMORIAL HOSPITAL", "Street_Addr": "1301 BELLEVILLE AVENUE", "PO_Box": "908", "CITY_NAME": "BREWTON", "ST_ABBR": "AL", "ZIP_CODE": "36427", "COUNTY_NAME": "ESCAMBIA", "source": "google" }, "geometry": { "type": "Point", "coordinates": [ -87.0732901, 31.1263538 ] } },
{ "type": "Feature", "properties": { "Provider Number": "010100", "FYB": "01-APR-18", "FYE": "31-MAR-19", "STATUS": "As Submitted", "CTRL_TYPE": 9, "HOSP10_Name": "THOMAS HOSPITAL", "Street_Addr": "750 MORPHY AVE", "PO_Box": "929", "CITY_NAME": "FAIRHOPE", "ST_ABBR": "AL", "ZIP_CODE": "36532", "COUNTY_NAME": "BALDWIN", "source": "google" }, "geometry": { "type": "Point", "coordinates": [ -87.8896788, 30.5187996 ] } },
{ "type": "Feature", "properties": { "Provider Number": "010101", "FYB": "01-JAN-18", "FYE": "31-DEC-18", "STATUS": "As Submitted", "CTRL_TYPE": 1, "HOSP10_Name": "CITIZENS BAPTIST MEDICAL CENTER", "Street_Addr": "604 STONE AVENUE", "PO_Box": null, "CITY_NAME": "TALLADEGA", "ST_ABBR": "AL", "ZIP_CODE": "35161", "COUNTY_NAME": "TALLADEGA", "source": "google" }, "geometry": { "type": "Point", "coordinates": [ -86.0903316, 33.440248 ] } },
{ "type": "Feature", "properties": { "Provider Number": "010102", "FYB": "01-OCT-17", "FYE": "30-SEP-18", "STATUS": "As Submitted", "CTRL_TYPE": 8, "HOSP10_Name": "JOHN PAUL JONES HOSPITAL", "Street_Addr": "317 MCWILLIAMS AVENUE", "PO_Box": "B", "CITY_NAME": "CAMDEN", "ST_ABBR": "AL", "ZIP_CODE": "36726-1610", "COUNTY_NAME": "WILCOX", "source": "google" }, "geometry": { "type": "Point", "coordinates": [ -87.3001801, 31.9974963 ] } },
{ "type": "Feature", "properties": { "Provider Number": "010103", "FYB": "01-JAN-18", "FYE": "31-DEC-18", "STATUS": "As Submitted", "CTRL_TYPE": 1, "HOSP10_Name": "PRINCETON BAPTIST MEDICAL CENTER", "Street_Addr": "701 PRINCETON AVE SW", "PO_Box": null, "CITY_NAME": "BIRMINGHAM", "ST_ABBR": "AL", "ZIP_CODE": "35211", "COUNTY_NAME": "JEFFERSON", "source": "google" }, "geometry": { "type": "Point", "coordinates": [ -86.8469633, 33.4986619 ] } },
{ "type": "Feature", "properties": { "Provider Number": "010104", "FYB": "01-JUL-18", "FYE": "30-JUN-19", "STATUS": "As Submitted", "CTRL_TYPE": 4, "HOSP10_Name": "GRANDVIEW MEDICAL CENTER", "Street_Addr": "800 MONTCLAIR ROAD", "PO_Box": null, "CITY_NAME": "BIRMINGHAM", "ST_ABBR": "AL", "ZIP_CODE": "35213", "COUNTY_NAME": "JEFFERSON", "source": "google" }, "geometry": { "type": "Point", "coordinates": [ -86.7180129, 33.4329477 ] } },
{ "type": "Feature", "properties": { "Provider Number": "010108", "FYB": "01-JUL-18", "FYE": "30-JUN-19", "STATUS": "As Submitted", "CTRL_TYPE": 11, "HOSP10_Name": "PRATTVILLE BAPTIST HOSPITAL", "Street_Addr": "124 SOUTH MEMORIAL DRIVE", "PO_Box": null, "CITY_NAME": "PRATTVILLE", "ST_ABBR": "AL", "ZIP_CODE": "36067", "COUNTY_NAME": "AUTAUGA", "source": "google" }, "geometry": { "type": "Point", "coordinates": [ -86.4517856, 32.4639959 ] } },
{ "type": "Feature", "properties": { "Provider Number": "010109", "FYB": "01-OCT-17", "FYE": "30-SEP-18", "STATUS": "As Submitted", "CTRL_TYPE": 9, "HOSP10_Name": "PICKENS COUNTY MEDICAL CENTER", "Street_Addr": "R.K. WILSON DRIVE", "PO_Box": null, "CITY_NAME": "CARROLLTON", "ST_ABBR": "AL", "ZIP_CODE": "35477", "COUNTY_NAME": "PICKENS", "source": "google" }, "geometry": { "type": "Point", "coordinates": [ -88.088256, 33.27455 ] } },
{ "type": "Feature", "properties": { "Provider Number": "010110", "FYB": "01-JAN-18", "FYE": "31-DEC-18", "STATUS": "As Submitted", "CTRL_TYPE": 4, "HOSP10_Name": "BULLOCK COUNTY HOSPITAL", "Street_Addr": "BULLOCK COUNTY HOSPITAL", "PO_Box": "102 CONECUH AVENUE", "CITY_NAME": "UNION SPRINGS", "ST_ABBR": "AL", "ZIP_CODE": "36089", "COUNTY_NAME": "BULLOCK", "source": "google" }, "geometry": { "type": "Point", "coordinates": [ -85.7167428, 32.1466768 ] } },
{ "type": "Feature", "properties": { "Provider Number": "010112", "FYB": "01-OCT-17", "FYE": "30-SEP-18", "STATUS": "As Submitted", "CTRL_TYPE": 8, "HOSP10_Name": "BRYAN W WHITFIELD MEMORIAL HOSPITAL", "Street_Addr": "105 HIGHWAY 80 EAST", "PO_Box": null, "CITY_NAME": "DEMOPOLIS", "ST_ABBR": "AL", "ZIP_CODE": "36732", "COUNTY_NAME": "MARENGO", "source": "google" }, "geometry": { "type": "Point", "coordinates": [ -87.8364156, 32.504412 ] } },
{ "type": "Feature", "properties": { "Provider Number": "010113", "FYB": "01-APR-18", "FYE": "31-MAR-19", "STATUS": "As Submitted", "CTRL_TYPE": 2, "HOSP10_Name": "MOBILE INFIRMARY MEDICAL CENTER", "Street_Addr": "FIVE MOBILE INFIRMARY CIRCLE", "PO_Box": "2144", "CITY_NAME": "MOBILE", "ST_ABBR": "AL", "ZIP_CODE": "36652", "COUNTY_NAME": "MOBILE", "source": "google" }, "geometry": { "type": "Point", "coordinates": [ -88.0805779, 30.6973217 ] } },
{ "type": "Feature", "properties": { "Provider Number": "010114", "FYB": "01-JAN-18", "FYE": "30-SEP-18", "STATUS": "As Submitted", "CTRL_TYPE": 10, "HOSP10_Name": "UAB MEDICAL WEST", "Street_Addr": "995 NINTH AVENUE  SOUTHWEST", "PO_Box": "847", "CITY_NAME": "BESSEMER", "ST_ABBR": "AL", "ZIP_CODE": "35023", "COUNTY_NAME": "JEFFERSON", "source": "google" }, "geometry": { "type": "Point", "coordinates": [ -86.9904606, 33.3723666 ] } },
{ "type": "Feature", "properties": { "Provider Number": "010118", "FYB": "01-JUL-18", "FYE": "30-JUN-19", "STATUS": "As Submitted", "CTRL_TYPE": 4, "HOSP10_Name": "VAUGHAN REGIONAL MEDICAL CENTER", "Street_Addr": "1015 MEDICAL CENTER PARKWAY", "PO_Box": null, "CITY_NAME": "SELMA", "ST_ABBR": "AL", "ZIP_CODE": "36701", "COUNTY_NAME": "DALLAS", "source": "google" }, "geometry": { "type": "Point", "coordinates": [ -87.056025, 32.4292722 ] } },
{ "type": "Feature", "properties": { "Provider Number": "010120", "FYB": "01-OCT-17", "FYE": "30-SEP-18", "STATUS": "As Submitted", "CTRL_TYPE": 9, "HOSP10_Name": "MONROE COUNTY HOSPITAL", "Street_Addr": "HIGHWAY 21", "PO_Box": null, "CITY_NAME": "MONROEVILLE", "ST_ABBR": "AL", "ZIP_CODE": "36461", "COUNTY_NAME": "MONROE", "source": "google" }, "geometry": { "type": "Point", "coordinates": [ -87.3205756, 31.4979448 ] } },
{ "type": "Feature", "properties": { "Provider Number": "010125", "FYB": "01-JAN-18", "FYE": "31-DEC-18", "STATUS": "As Submitted", "CTRL_TYPE": 2, "HOSP10_Name": "LAKELAND COMMUNITY HOSPITAL", "Street_Addr": "42024 HIGHWAY 195", "PO_Box": "780", "CITY_NAME": "HALEYVILLE", "ST_ABBR": "AL", "ZIP_CODE": "35565", "COUNTY_NAME": "WINSTON", "source": "google" }, "geometry": { "type": "Point", "coordinates": [ -87.591312, 34.241867 ] } },
{ "type": "Feature", "properties": { "Provider Number": "010126", "FYB": "01-APR-18", "FYE": "31-MAR-19", "STATUS": "As Submitted", "CTRL_TYPE": 8, "HOSP10_Name": "TROY REGIONAL MEDICAL CENTER", "Street_Addr": "130 HIGHWAY 231", "PO_Box": null, "CITY_NAME": "TROY", "ST_ABBR": "AL", "ZIP_CODE": "36081", "COUNTY_NAME": "PIKE", "source": "google" }, "geometry": { "type": "Point", "coordinates": [ -85.9452641, 31.7809791 ] } },
{ "type": "Feature", "properties": { "Provider Number": "010128", "FYB": "01-JAN-18", "FYE": "31-DEC-18", "STATUS": "As Submitted", "CTRL_TYPE": 4, "HOSP10_Name": "JACKSON MEDICAL CENTER", "Street_Addr": "220 HOSPITAL DRIVE", "PO_Box": null, "CITY_NAME": "JACKSON", "ST_ABBR": "AL", "ZIP_CODE": "36545", "COUNTY_NAME": "CLARKE", "source": "google" }, "geometry": { "type": "Point", "coordinates": [ -87.895053, 31.5311947 ] } },
{ "type": "Feature", "properties": { "Provider Number": "010129", "FYB": "01-APR-18", "FYE": "31-MAR-19", "STATUS": "As Submitted", "CTRL_TYPE": 2, "HOSP10_Name": "NORTH BALDWIN INFIRMARY", "Street_Addr": "1815 HAND AVENUE", "PO_Box": "1409", "CITY_NAME": "BAY MINETTE", "ST_ABBR": "AL", "ZIP_CODE": "36507", "COUNTY_NAME": "BALDWIN", "source": "google" }, "geometry": { "type": "Point", "coordinates": [ -87.7850321, 30.9035455 ] } },
{ "type": "Feature", "properties": { "Provider Number": "010130", "FYB": "01-JUL-18", "FYE": "30-JUN-19", "STATUS": "As Submitted", "CTRL_TYPE": 1, "HOSP10_Name": "ST. VINCENTS ST. CLAIR", "Street_Addr": "7063 VETERANS PARKWAY", "PO_Box": null, "CITY_NAME": "PELL CITY", "ST_ABBR": "AL", "ZIP_CODE": "35125", "COUNTY_NAME": "ST. CLAIR", "source": "google" }, "geometry": { "type": "Point", "coordinates": [ -86.301725300000015, 33.6043705 ] } },
{ "type": "Feature", "properties": { "Provider Number": "010131", "FYB": "01-JUL-18", "FYE": "30-JUN-19", "STATUS": "As Submitted", "CTRL_TYPE": 4, "HOSP10_Name": "CRESTWOOD MEDICAL CENTER", "Street_Addr": "ONE HOSPITAL DRIVE", "PO_Box": null, "CITY_NAME": "HUNTSVILLE", "ST_ABBR": "AL", "ZIP_CODE": "35801", "COUNTY_NAME": "MADISON", "source": "google" }, "geometry": { "type": "Point", "coordinates": [ -86.5720291, 34.6943814 ] } },
{ "type": "Feature", "properties": { "Provider Number": "010137", "FYB": "01-OCT-11", "FYE": "30-SEP-12", "STATUS": "Settled", "CTRL_TYPE": 9, "HOSP10_Name": "COOPER GREEN MERCY HOSPITAL", "Street_Addr": "1515 SIXTH AVENUE SOUTH", "PO_Box": null, "CITY_NAME": "BIRMINGHAM", "ST_ABBR": "AL", "ZIP_CODE": "35233", "COUNTY_NAME": "JEFFERSON", "source": "google" }, "geometry": { "type": "Point", "coordinates": [ -86.806755, 33.5036733 ] } },
{ "type": "Feature", "properties": { "Provider Number": "010138", "FYB": "01-JAN-18", "FYE": "31-DEC-18", "STATUS": "As Submitted", "CTRL_TYPE": 8, "HOSP10_Name": "HILL HOSPITAL OF SUMTER COUNTY", "Street_Addr": "751 DERBY DRIVE", "PO_Box": null, "CITY_NAME": "YORK", "ST_ABBR": "AL", "ZIP_CODE": "36925", "COUNTY_NAME": "SUMTER", "source": "google" }, "geometry": { "type": "Point", "coordinates": [ -88.2954427, 32.4919854 ] } },
{ "type": "Feature", "properties": { "Provider Number": "010139", "FYB": "01-JAN-18", "FYE": "31-DEC-18", "STATUS": "As Submitted", "CTRL_TYPE": 4, "HOSP10_Name": "BROOKWOOD BAPTIST MEDICAL CENTER", "Street_Addr": "2010 BROOKWOOD MEDICAL CENTER DRIVE", "PO_Box": null, "CITY_NAME": "BIRMINGHAM", "ST_ABBR": "AL", "ZIP_CODE": "35209", "COUNTY_NAME": "JEFFERSON", "source": "google" }, "geometry": { "type": "Point", "coordinates": [ -86.775911900000011, 33.4642249 ] } },
{ "type": "Feature", "properties": { "Provider Number": "010144", "FYB": "01-JAN-18", "FYE": "31-DEC-18", "STATUS": "As Submitted", "CTRL_TYPE": 4, "HOSP10_Name": "SPRINGHILL MEMORIAL HOSPITAL", "Street_Addr": "3719 DAUPHIN STREET", "PO_Box": null, "CITY_NAME": "MOBILE", "ST_ABBR": "AL", "ZIP_CODE": "36608", "COUNTY_NAME": "MOBILE", "source": "google" }, "geometry": { "type": "Point", "coordinates": [ -88.1310549, 30.6845615 ] } },
{ "type": "Feature", "properties": { "Provider Number": "010145", "FYB": "01-OCT-10", "FYE": "30-APR-11", "STATUS": "As Submitted", "CTRL_TYPE": 8, "HOSP10_Name": "NORTHPORT MEDICAL CENTER DCH", "Street_Addr": "2700 HOSPITAL DRIVE", "PO_Box": null, "CITY_NAME": "NORTHPORT", "ST_ABBR": "AL", "ZIP_CODE": "35476", "COUNTY_NAME": "TUSCALOOSA", "source": "google" }, "geometry": { "type": "Point", "coordinates": [ -87.5705431, 33.2342044 ] } },
{ "type": "Feature", "properties": { "Provider Number": "010146", "FYB": "01-OCT-17", "FYE": "30-JUN-18", "STATUS": "As Submitted", "CTRL_TYPE": 13, "HOSP10_Name": "JACKSONVILLE MEDICAL CENTER", "Street_Addr": "1701 PELHAM ROAD SOUTH", "PO_Box": null, "CITY_NAME": "JACKSONVILLE", "ST_ABBR": "AL", "ZIP_CODE": "36265", "COUNTY_NAME": "CALHOUN", "source": "google" }, "geometry": { "type": "Point", "coordinates": [ -85.7637007, 33.7849526 ] } },
{ "type": "Feature", "properties": { "Provider Number": "010148", "FYB": "01-JAN-18", "FYE": "31-DEC-18", "STATUS": "As Submitted", "CTRL_TYPE": 4, "HOSP10_Name": "EVERGREEN MEDICAL CENTER", "Street_Addr": "101 CRESTVIEW AVENUE", "PO_Box": null, "CITY_NAME": "EVERGREEN", "ST_ABBR": "AL", "ZIP_CODE": "36401", "COUNTY_NAME": "CONECUH", "source": "google" }, "geometry": { "type": "Point", "coordinates": [ -86.940792, 31.4309925 ] } },
{ "type": "Feature", "properties": { "Provider Number": "010149", "FYB": "01-JUL-18", "FYE": "30-JUN-19", "STATUS": "As Submitted", "CTRL_TYPE": 11, "HOSP10_Name": "BAPTIST MEDICAL CENTER EAST", "Street_Addr": "400 TAYLOR ROAD", "PO_Box": null, "CITY_NAME": "MONTGOMERY", "ST_ABBR": "AL", "ZIP_CODE": "36117", "COUNTY_NAME": "MONTGOMERY", "source": "google" }, "geometry": { "type": "Point", "coordinates": [ -86.1749456, 32.3759945 ] } },
{ "type": "Feature", "properties": { "Provider Number": "010150", "FYB": "01-NOV-17", "FYE": "30-SEP-18", "STATUS": "As Submitted", "CTRL_TYPE": 4, "HOSP10_Name": "LV STABLER MEMORIAL HOSPITAL", "Street_Addr": "29 LV STABLER DRIVE", "PO_Box": null, "CITY_NAME": "GREENVILLE", "ST_ABBR": "AL", "ZIP_CODE": "36037", "COUNTY_NAME": "BUTLER", "source": "google" }, "geometry": { "type": "Point", "coordinates": [ -86.6461325, 31.829198 ] } },
{ "type": "Feature", "properties": { "Provider Number": "010152", "FYB": "01-APR-12", "FYE": "31-OCT-12", "STATUS": "Settled", "CTRL_TYPE": 10, "HOSP10_Name": "INFIRMARY WEST", "Street_Addr": "5600 GIRBY ROAD", "PO_Box": "0144", "CITY_NAME": "MOBILE", "ST_ABBR": "AL", "ZIP_CODE": "36693", "COUNTY_NAME": "MOBILE", "source": "google" }, "geometry": { "type": "Point", "coordinates": [ -88.1712829, 30.6191729 ] } },
{ "type": "Feature", "properties": { "Provider Number": "010157", "FYB": "01-APR-18", "FYE": "31-MAR-19", "STATUS": "As Submitted", "CTRL_TYPE": 4, "HOSP10_Name": "SHOALS HOSPITAL", "Street_Addr": "201 W AVALON AVE.", "PO_Box": "3359", "CITY_NAME": "MUSCLE SHOALS", "ST_ABBR": "AL", "ZIP_CODE": "35661", "COUNTY_NAME": "COLBERT", "source": "google" }, "geometry": { "type": "Point", "coordinates": [ -87.6762465, 34.7472373 ] } },
{ "type": "Feature", "properties": { "Provider Number": "010158", "FYB": "01-JAN-18", "FYE": "31-DEC-18", "STATUS": "As Submitted", "CTRL_TYPE": 2, "HOSP10_Name": "RUSSELLVILLE HOSPITAL", "Street_Addr": "15155 HIGHWAY 43", "PO_Box": "1089", "CITY_NAME": "RUSSELLVILLE", "ST_ABBR": "AL", "ZIP_CODE": "35653", "COUNTY_NAME": "FRANKLIN", "source": "google" }, "geometry": { "type": "Point", "coordinates": [ -87.718347, 34.5107725 ] } },
{ "type": "Feature", "properties": { "Provider Number": "010164", "FYB": "01-AUG-17", "FYE": "31-JUL-18", "STATUS": "As Submitted", "CTRL_TYPE": 12, "HOSP10_Name": "COOSA VALLEY MEDICAL CENTER", "Street_Addr": "315 WEST HICKORY STREET", "PO_Box": null, "CITY_NAME": "SYLACAUGA", "ST_ABBR": "AL", "ZIP_CODE": "35150", "COUNTY_NAME": "TALLADEGA", "source": "google" }, "geometry": { "type": "Point", "coordinates": [ -86.2548792, 33.1648674 ] } },
{ "type": "Feature", "properties": { "Provider Number": "010168", "FYB": "01-JAN-18", "FYE": "31-DEC-18", "STATUS": "As Submitted", "CTRL_TYPE": 5, "HOSP10_Name": "JACK HUGHSTON MEMORIAL HOSPITAL", "Street_Addr": "4401 RIVER CHASE DRIVE", "PO_Box": null, "CITY_NAME": "PHENIX CITY", "ST_ABBR": "AL", "ZIP_CODE": "36867", "COUNTY_NAME": "RUSSELL", "source": "mapbox" }, "geometry": { "type": "Point", "coordinates": [ -85.03, 32.49 ] } },
{ "type": "Feature", "properties": { "Provider Number": "010169", "FYB": "01-OCT-17", "FYE": "30-SEP-18", "STATUS": "As Submitted", "CTRL_TYPE": 2, "HOSP10_Name": "ATMORE COMMUNITY HOSPITAL", "Street_Addr": "401 MEDICAL PARK DRIVE", "PO_Box": null, "CITY_NAME": "ATMORE", "ST_ABBR": "AL", "ZIP_CODE": "36502", "COUNTY_NAME": "ESCAMBIA", "source": "google" }, "geometry": { "type": "Point", "coordinates": [ -87.4788066, 31.0170169 ] } },
{ "type": "Feature", "properties": { "Provider Number": "010171", "FYB": "14-MAR-12", "FYE": "30-MAY-12", "STATUS": "As Submitted", "CTRL_TYPE": 2, "HOSP10_Name": "CHOCTAW GENERAL HOSPITAL", "Street_Addr": "401 VANITY FAIR LANE", "PO_Box": "618", "CITY_NAME": "BUTLER", "ST_ABBR": "AL", "ZIP_CODE": "36904", "COUNTY_NAME": "BUTLER", "source": "google" }, "geometry": { "type": "Point", "coordinates": [ -88.2091189, 32.0934858 ] } },
{ "type": "Feature", "properties": { "Provider Number": "010172", "FYB": "26-SEP-15", "FYE": "30-APR-16", "STATUS": "Settled", "CTRL_TYPE": 4, "HOSP10_Name": "NORTH ALABAMA SPECIALTY HOSPITAL", "Street_Addr": "700 WEST MARKET STREET 2ND FLOOR", "PO_Box": null, "CITY_NAME": "ATHENS", "ST_ABBR": "AL", "ZIP_CODE": "35611", "COUNTY_NAME": "LIMESTONE COUNTY", "source": "google" }, "geometry": { "type": "Point", "coordinates": [ -86.979177, 34.8042607 ] } },
{ "type": "Feature", "properties": { "Provider Number": "010173", "FYB": "01-JUL-18", "FYE": "30-JUN-19", "STATUS": "As Submitted", "CTRL_TYPE": 1, "HOSP10_Name": "ST. VINCENTS CHILTON", "Street_Addr": "2030 LAY DAM ROAD", "PO_Box": null, "CITY_NAME": "CLANTON", "ST_ABBR": "AL", "ZIP_CODE": "35045", "COUNTY_NAME": "CHILTON", "source": "google" }, "geometry": { "type": "Point", "coordinates": [ -86.6224903, 32.8803129 ] } },
{ "type": "Feature", "properties": { "Provider Number": "011300", "FYB": "01-OCT-17", "FYE": "30-SEP-18", "STATUS": "As Submitted", "CTRL_TYPE": 9, "HOSP10_Name": "WASHINGTON COUNTY HOSPITAL", "Street_Addr": "ST. STEPHENS AVENUE", "PO_Box": "1299", "CITY_NAME": "CHATOM", "ST_ABBR": "AL", "ZIP_CODE": "36518", "COUNTY_NAME": "WASHINGTON", "source": "google" }, "geometry": { "type": "Point", "coordinates": [ -88.2356212, 31.4590509 ] } },
{ "type": "Feature", "properties": { "Provider Number": "011302", "FYB": "01-OCT-17", "FYE": "30-SEP-18", "STATUS": "As Submitted", "CTRL_TYPE": 13, "HOSP10_Name": "RED BAY HOSPITAL", "Street_Addr": "211 HOSPITAL ROAD", "PO_Box": "490", "CITY_NAME": "RED BAY", "ST_ABBR": "AL", "ZIP_CODE": "35582", "COUNTY_NAME": "FRANKLIN", "source": "google" }, "geometry": { "type": "Point", "coordinates": [ -88.1473345, 34.4581187 ] } },
{ "type": "Feature", "properties": { "Provider Number": "011304", "FYB": "01-JAN-18", "FYE": "31-DEC-18", "STATUS": "As Submitted", "CTRL_TYPE": 2, "HOSP10_Name": "CHOCTAW GENERAL HOSPITAL", "Street_Addr": "401 VANITY FAIR LANE", "PO_Box": "618", "CITY_NAME": "BUTLER", "ST_ABBR": "AL", "ZIP_CODE": "36904", "COUNTY_NAME": "BUTLER", "source": "google" }, "geometry": { "type": "Point", "coordinates": [ -88.2091189, 32.0934858 ] } },
{ "type": "Feature", "properties": { "Provider Number": "011305", "FYB": "01-JUL-18", "FYE": "30-JUN-19", "STATUS": "As Submitted", "CTRL_TYPE": 1, "HOSP10_Name": "ST. VINCENTS BLOUNT", "Street_Addr": "150 GILBREATH DRIVE", "PO_Box": "1000", "CITY_NAME": "ONEONTA", "ST_ABBR": "AL", "ZIP_CODE": "35121", "COUNTY_NAME": "BLOUNT", "source": "google" }, "geometry": { "type": "Point", "coordinates": [ -86.494432500000016, 33.9320523 ] } },
{ "type": "Feature", "properties": { "Provider Number": "011306", "FYB": "09-JAN-19", "FYE": "30-JUN-19", "STATUS": "As Submitted", "CTRL_TYPE": 2, "HOSP10_Name": "TANNER MEDICAL CENTER ALABAMA  INC.", "Street_Addr": "1032 MAIN STREET SOUTH", "PO_Box": null, "CITY_NAME": "WEDOWEE", "ST_ABBR": "AL", "ZIP_CODE": "36278", "COUNTY_NAME": null, "source": "google" }, "geometry": { "type": "Point", "coordinates": [ -85.4803505, 33.2956504 ] } },
{ "type": "Feature", "properties": { "Provider Number": "012006", "FYB": "01-APR-18", "FYE": "31-MAR-19", "STATUS": "As Submitted", "CTRL_TYPE": 10, "HOSP10_Name": "INFIRMARY LTAC HOSPITAL", "Street_Addr": "5 MOBILE INFIRMARY CIRCLE", "PO_Box": "2144", "CITY_NAME": "MOBILE", "ST_ABBR": "AL", "ZIP_CODE": "36607", "COUNTY_NAME": "MOBILE", "source": "google" }, "geometry": { "type": "Point", "coordinates": [ -88.0803185, 30.6967019 ] } },
{ "type": "Feature", "properties": { "Provider Number": "012007", "FYB": "01-SEP-17", "FYE": "31-AUG-18", "STATUS": "As Submitted", "CTRL_TYPE": 2, "HOSP10_Name": "NOLAND HOSPITAL MONTGOMERY II", "Street_Addr": "1725 PINE STREET 5TH FLOOR", "PO_Box": null, "CITY_NAME": "MONTGOMERY", "ST_ABBR": "AL", "ZIP_CODE": "36106", "COUNTY_NAME": "MONTGOMERY", "source": "google" }, "geometry": { "type": "Point", "coordinates": [ -86.2853492, 32.367083099999988 ] } },
{ "type": "Feature", "properties": { "Provider Number": "012008", "FYB": "01-SEP-17", "FYE": "31-AUG-18", "STATUS": "As Submitted", "CTRL_TYPE": 4, "HOSP10_Name": "SSH - BIRMINGHAM", "Street_Addr": "2010 BROOKWOOD MEDICAL CENTER DRIVE", "PO_Box": "3RD FLOOR", "CITY_NAME": "BIRMINGHAM", "ST_ABBR": "AL", "ZIP_CODE": "35213", "COUNTY_NAME": "JEFFERSON", "source": "google" }, "geometry": { "type": "Point", "coordinates": [ -86.7772252, 33.4634423 ] } },
{ "type": "Feature", "properties": { "Provider Number": "012009", "FYB": "01-SEP-17", "FYE": "31-AUG-18", "STATUS": "As Submitted", "CTRL_TYPE": 2, "HOSP10_Name": "NOLAND HOSPITAL BIRMINGHAM II", "Street_Addr": "50 MEDICAL PARK EAST  8TH FLOOR", "PO_Box": null, "CITY_NAME": "BIRMINGHAM", "ST_ABBR": "AL", "ZIP_CODE": "35235", "COUNTY_NAME": "JEFFERSON", "source": "google" }, "geometry": { "type": "Point", "coordinates": [ -86.6676502, 33.596457 ] } },
{ "type": "Feature", "properties": { "Provider Number": "012010", "FYB": "01-SEP-17", "FYE": "31-AUG-18", "STATUS": "As Submitted", "CTRL_TYPE": 2, "HOSP10_Name": "NOLAND HOSPITAL DOTHAN II", "Street_Addr": "1180 ROSS CLARK CIRCLE 4TH FLOOR", "PO_Box": null, "CITY_NAME": "DOTHAN", "ST_ABBR": "AL", "ZIP_CODE": "36301", "COUNTY_NAME": "HOUSTON", "source": "google" }, "geometry": { "type": "Point", "coordinates": [ -85.3630676, 31.2167252 ] } },
{ "type": "Feature", "properties": { "Provider Number": "012011", "FYB": "01-SEP-17", "FYE": "31-AUG-18", "STATUS": "As Submitted", "CTRL_TYPE": 2, "HOSP10_Name": "NOLAND HOSPITAL ANNISTON II", "Street_Addr": "400 E. 10TH STREET 4TH FLOOR", "PO_Box": null, "CITY_NAME": "ANNISTON", "ST_ABBR": "AL", "ZIP_CODE": "36207-4716", "COUNTY_NAME": "CALHOUN", "source": "google" }, "geometry": { "type": "Point", "coordinates": [ -85.8227815, 33.6562703 ] } },
{ "type": "Feature", "properties": { "Provider Number": "012012", "FYB": "01-SEP-17", "FYE": "31-AUG-18", "STATUS": "As Submitted", "CTRL_TYPE": 2, "HOSP10_Name": "NOLAND HOSPITAL TUSCALOOSA II", "Street_Addr": "809 UNIVERSITY BLVD E. 4TH FLOOR", "PO_Box": null, "CITY_NAME": "TUSCALOOSA", "ST_ABBR": "AL", "ZIP_CODE": "35402-0284", "COUNTY_NAME": "TUSCALOOSA", "source": "google" }, "geometry": { "type": "Point", "coordinates": [ -87.5264811, 33.2053981 ] } },
{ "type": "Feature", "properties": { "Provider Number": "012013", "FYB": "01-SEP-16", "FYE": "31-JUL-17", "STATUS": "Settled", "CTRL_TYPE": 2, "HOSP10_Name": "NOLAND HOSPITAL SHELBY II", "Street_Addr": "1000 FIRST ST NORTH  3RD FLOOR", "PO_Box": null, "CITY_NAME": "ALABASTER", "ST_ABBR": "AL", "ZIP_CODE": "35007", "COUNTY_NAME": "SHELBY", "source": "google" }, "geometry": { "type": "Point", "coordinates": [ -86.812933, 33.252859 ] } },
{ "type": "Feature", "properties": { "Provider Number": "012014", "FYB": "01-MAY-18", "FYE": "30-APR-19", "STATUS": "As Submitted", "CTRL_TYPE": 4, "HOSP10_Name": "NORTH ALABAMA SPECIALTY HOSPITAL", "Street_Addr": "700 WEST MARKET STREET 2ND FLOOR", "PO_Box": null, "CITY_NAME": "ATHENS", "ST_ABBR": "AL", "ZIP_CODE": "35611", "COUNTY_NAME": "LIMESTONE COUNTY", "source": "google" }, "geometry": { "type": "Point", "coordinates": [ -86.979177, 34.8042607 ] } },
{ "type": "Feature", "properties": { "Provider Number": "013025", "FYB": "01-JAN-18", "FYE": "31-DEC-18", "STATUS": "As Submitted", "CTRL_TYPE": 4, "HOSP10_Name": "ENCOMPASS HEALTH LAKESHORE REHABILIT", "Street_Addr": "3800 RIDGEWAY DRIVE", "PO_Box": null, "CITY_NAME": "BIRMINGHAM", "ST_ABBR": "AL", "ZIP_CODE": "35209", "COUNTY_NAME": "JEFFERSON", "source": "google" }, "geometry": { "type": "Point", "coordinates": [ -86.7858536, 33.4684537 ] } },
{ "type": "Feature", "properties": { "Provider Number": "013027", "FYB": "01-JAN-14", "FYE": "30-DEC-14", "STATUS": "Settled", "CTRL_TYPE": 4, "HOSP10_Name": "MOBILE BAY REHABILITATION HOSPITAL", "Street_Addr": "101 VILLA DRIVE", "PO_Box": null, "CITY_NAME": "DAPHNE", "ST_ABBR": "AL", "ZIP_CODE": "36526", "COUNTY_NAME": "BALDWIN", "source": "google" }, "geometry": { "type": "Point", "coordinates": [ -87.9074904, 30.6127869 ] } },
{ "type": "Feature", "properties": { "Provider Number": "013028", "FYB": "01-JAN-18", "FYE": "31-DEC-18", "STATUS": "As Submitted", "CTRL_TYPE": 4, "HOSP10_Name": "ENCOMPASS HEALTH REHABILITATION HOSP", "Street_Addr": "4465 NARROW LANE ROAD", "PO_Box": null, "CITY_NAME": "MONTGOMERY", "ST_ABBR": "AL", "ZIP_CODE": "36116", "COUNTY_NAME": "MONTGOMERY", "source": "google" }, "geometry": { "type": "Point", "coordinates": [ -86.280635, 32.319145 ] } },
{ "type": "Feature", "properties": { "Provider Number": "013029", "FYB": "01-JUN-18", "FYE": "31-MAY-19", "STATUS": "As Submitted", "CTRL_TYPE": 4, "HOSP10_Name": "ENCOMPASS HEALTH REHABILITATION HOSP", "Street_Addr": "107 GOVERNERS DRIVE SW", "PO_Box": null, "CITY_NAME": "HUNTSVILLE", "ST_ABBR": "AL", "ZIP_CODE": "35801", "COUNTY_NAME": "MADISON", "source": "google" }, "geometry": { "type": "Point", "coordinates": [ -86.5799542, 34.7192744 ] } },
{ "type": "Feature", "properties": { "Provider Number": "013030", "FYB": "01-JAN-18", "FYE": "31-DEC-18", "STATUS": "As Submitted", "CTRL_TYPE": 4, "HOSP10_Name": "ENCOMPASS HEALTH REHABILITATION HOSP", "Street_Addr": "1736 EAST MAIN STREET", "PO_Box": null, "CITY_NAME": "DOTHAN", "ST_ABBR": "AL", "ZIP_CODE": "36301", "COUNTY_NAME": "HOUSTON", "source": "google" }, "geometry": { "type": "Point", "coordinates": [ -85.365714, 31.217858 ] } },
{ "type": "Feature", "properties": { "Provider Number": "013031", "FYB": "25-MAY-18", "FYE": "30-JUN-19", "STATUS": "As Submitted", "CTRL_TYPE": 4, "HOSP10_Name": "ENCOMPASS HEALTH REHABILITATION HOSP", "Street_Addr": "900 OAK MOUNTAIN COMMONS LANE", "PO_Box": null, "CITY_NAME": "PELHAM", "ST_ABBR": "AL", "ZIP_CODE": "35124", "COUNTY_NAME": "SHELBY", "source": "google" }, "geometry": { "type": "Point", "coordinates": [ -86.79881, 33.2832999 ] } },
{ "type": "Feature", "properties": { "Provider Number": "013032", "FYB": "01-JAN-18", "FYE": "31-DEC-18", "STATUS": "As Submitted", "CTRL_TYPE": 4, "HOSP10_Name": "ENCOMPASS HEALTH REHABILITATION HOSP", "Street_Addr": "801 GOODYEAR AVENUE", "PO_Box": null, "CITY_NAME": "GADSDEN", "ST_ABBR": "AL", "ZIP_CODE": "35903", "COUNTY_NAME": "ETOWAH", "source": "google" }, "geometry": { "type": "Point", "coordinates": [ -85.968745, 34.0071269 ] } },
{ "type": "Feature", "properties": { "Provider Number": "013033", "FYB": "01-JUN-18", "FYE": "31-MAY-19", "STATUS": "As Submitted", "CTRL_TYPE": 5, "HOSP10_Name": "REGIONAL REHABILITATION HOSPITAL", "Street_Addr": "3715 US HIGHWAY 431 N", "PO_Box": null, "CITY_NAME": "PHENIX CITY", "ST_ABBR": "AL", "ZIP_CODE": "36867", "COUNTY_NAME": "RUSSELL", "source": "mapbox" }, "geometry": { "type": "Point", "coordinates": [ -85.03, 32.49 ] } },
{ "type": "Feature", "properties": { "Provider Number": "013300", "FYB": "01-JAN-18", "FYE": "31-DEC-18", "STATUS": "As Submitted", "CTRL_TYPE": 2, "HOSP10_Name": "THE CHILDRENS HOSPITAL OF ALABAMA", "Street_Addr": "1600 7TH AVENUE SOUTH", "PO_Box": null, "CITY_NAME": "BIRMINGHAM", "ST_ABBR": "AL", "ZIP_CODE": "35233", "COUNTY_NAME": "JEFFERSON", "source": "google" }, "geometry": { "type": "Point", "coordinates": [ -86.8052894, 33.5040328 ] } },
{ "type": "Feature", "properties": { "Provider Number": "013301", "FYB": "01-OCT-17", "FYE": "30-SEP-18", "STATUS": "Amended", "CTRL_TYPE": 10, "HOSP10_Name": "USA CHILDRENS AND WOMENS HOSPITAL", "Street_Addr": "1700 CENTER STREET", "PO_Box": null, "CITY_NAME": "MOBILE", "ST_ABBR": "AL", "ZIP_CODE": "36604", "COUNTY_NAME": "MOBILE", "source": "google" }, "geometry": { "type": "Point", "coordinates": [ -88.077995, 30.6974509 ] } },
{ "type": "Feature", "properties": { "Provider Number": "014000", "FYB": "01-JUL-18", "FYE": "30-JUN-19", "STATUS": "As Submitted", "CTRL_TYPE": 4, "HOSP10_Name": "HILL CREST HOSPITAL", "Street_Addr": "6869 FIFTH AVENUE SOUTH", "PO_Box": null, "CITY_NAME": "BIRMINGHAM", "ST_ABBR": "AL", "ZIP_CODE": "35212", "COUNTY_NAME": null, "source": "google" }, "geometry": { "type": "Point", "coordinates": [ -86.7301961, 33.5487353 ] } },
{ "type": "Feature", "properties": { "Provider Number": "014005", "FYB": "01-OCT-11", "FYE": "31-AUG-12", "STATUS": "Settled", "CTRL_TYPE": 13, "HOSP10_Name": "GREIL MEMORIAL PSYCHIATRIC HOSPITAL", "Street_Addr": "2140 UPPER WETUMPA ROAD", "PO_Box": null, "CITY_NAME": "MONTGOMERY", "ST_ABBR": "AL", "ZIP_CODE": "36107", "COUNTY_NAME": "MONTGOMERY", "source": "google" }, "geometry": { "type": "Point", "coordinates": [ -86.2758533, 32.3893881 ] } },
{ "type": "Feature", "properties": { "Provider Number": "014006", "FYB": "01-JAN-18", "FYE": "31-DEC-18", "STATUS": "As Submitted", "CTRL_TYPE": 4, "HOSP10_Name": "MOUNTAIN VIEW HOSPITAL", "Street_Addr": "3001 SCENIC HIGHWAY", "PO_Box": null, "CITY_NAME": "GADSDEN", "ST_ABBR": "AL", "ZIP_CODE": "35901", "COUNTY_NAME": "ETOWAH", "source": "google" }, "geometry": { "type": "Point", "coordinates": [ -86.0197565, 34.0724486 ] } },
{ "type": "Feature", "properties": { "Provider Number": "014007", "FYB": "01-JUL-18", "FYE": "30-JUN-19", "STATUS": "As Submitted", "CTRL_TYPE": 10, "HOSP10_Name": "BRYCE HOSPITAL", "Street_Addr": "1651 RUBY TYLER PARKWAY", "PO_Box": null, "CITY_NAME": "TUSCALOOSA", "ST_ABBR": "AL", "ZIP_CODE": "35404-2990", "COUNTY_NAME": "TUSCALOOSA", "source": "google" }, "geometry": { "type": "Point", "coordinates": [ -87.5151009, 33.2073156 ] } },
{ "type": "Feature", "properties": { "Provider Number": "014008", "FYB": "01-OCT-11", "FYE": "31-OCT-12", "STATUS": "Settled", "CTRL_TYPE": 10, "HOSP10_Name": "SEARCY HOSPITAL", "Street_Addr": "COY SMITH HIGHWAY", "PO_Box": "1090", "CITY_NAME": "MT VERNON", "ST_ABBR": "AL", "ZIP_CODE": "36560", "COUNTY_NAME": "MOBILE", "source": "google" }, "geometry": { "type": "Point", "coordinates": [ -88.0290979, 31.0881526 ] } },
{ "type": "Feature", "properties": { "Provider Number": "014009", "FYB": "01-OCT-14", "FYE": "30-JUN-15", "STATUS": "Settled", "CTRL_TYPE": 2, "HOSP10_Name": "NORTH ALABAMA REGIONAL HOSPITAL", "Street_Addr": "HIGHWAY 31", "PO_Box": "2221", "CITY_NAME": "DECATUR", "ST_ABBR": "AL", "ZIP_CODE": "35609", "COUNTY_NAME": "MORGAN", "source": "google" }, "geometry": { "type": "Point", "coordinates": [ -86.9708407, 34.5247202 ] } },
{ "type": "Feature", "properties": { "Provider Number": "014011", "FYB": "01-OCT-13", "FYE": "27-AUG-14", "STATUS": "Settled", "CTRL_TYPE": 10, "HOSP10_Name": "TAYLOR HARDIN SECURE MEDICAL", "Street_Addr": "1301 JACK WARNER PKWY  NE", "PO_Box": null, "CITY_NAME": "TUSCALOOSA", "ST_ABBR": "AL", "ZIP_CODE": "35404", "COUNTY_NAME": null, "source": "google" }, "geometry": { "type": "Point", "coordinates": [ -87.5175662, 33.2185222 ] } },
{ "type": "Feature", "properties": { "Provider Number": "014012", "FYB": "01-OCT-17", "FYE": "30-SEP-18", "STATUS": "As Submitted", "CTRL_TYPE": 10, "HOSP10_Name": "MARY S HARPER GERIATRIC PSYCH CEN", "Street_Addr": "201 UNIVERSITY BOULEVARD", "PO_Box": "21231", "CITY_NAME": "TUSCALOOSA", "ST_ABBR": "AL", "ZIP_CODE": "35402", "COUNTY_NAME": "TUSCALOOSA", "source": "google" }, "geometry": { "type": "Point", "coordinates": [ -87.5379711, 33.2081216 ] } },
{ "type": "Feature", "properties": { "Provider Number": "014013", "FYB": "01-JUL-18", "FYE": "30-JUN-19", "STATUS": "Settled", "CTRL_TYPE": 4, "HOSP10_Name": "LAUREL OAKS BEHAVIORAL HEALTH CTR", "Street_Addr": "700 EAST COTTONWOOD RD", "PO_Box": null, "CITY_NAME": "DOTHAN", "ST_ABBR": "AL", "ZIP_CODE": "36301-3644", "COUNTY_NAME": null, "source": "google" }, "geometry": { "type": "Point", "coordinates": [ -85.38462, 31.203702 ] } },
{ "type": "Feature", "properties": { "Provider Number": "014014", "FYB": "01-OCT-17", "FYE": "30-SEP-18", "STATUS": "Settled", "CTRL_TYPE": 9, "HOSP10_Name": "BAYPOINT BEHAVIORAL HEALTH", "Street_Addr": "5750 A SOUTHLAND DRIVE", "PO_Box": null, "CITY_NAME": "MOBILE", "ST_ABBR": "AL", "ZIP_CODE": "36693-3316", "COUNTY_NAME": null, "source": "google" }, "geometry": { "type": "Point", "coordinates": [ -88.1766613, 30.6244806 ] } },
{ "type": "Feature", "properties": { "Provider Number": "014015", "FYB": "01-JAN-18", "FYE": "31-DEC-18", "STATUS": "Settled", "CTRL_TYPE": 4, "HOSP10_Name": "BEACON CHILDRENS HOSPITAL", "Street_Addr": "150 HOSPITAL DRIVE", "PO_Box": null, "CITY_NAME": "LUVERNE", "ST_ABBR": "AL", "ZIP_CODE": "36049", "COUNTY_NAME": null, "source": "google" }, "geometry": { "type": "Point", "coordinates": [ -86.2675693, 31.6929033 ] } },
{ "type": "Feature", "properties": { "Provider Number": "014016", "FYB": "01-JUL-18", "FYE": "30-JUN-19", "STATUS": "As Submitted", "CTRL_TYPE": 6, "HOSP10_Name": "USA HEALTHCARE PSYCH SERVICES LLC", "Street_Addr": "1910 CHEROKEE AVE", "PO_Box": null, "CITY_NAME": "CULLMAN", "ST_ABBR": "AL", "ZIP_CODE": "35056", "COUNTY_NAME": "CULLMAN", "source": "google" }, "geometry": { "type": "Point", "coordinates": [ -86.8461115, 34.1509873 ] } },
{ "type": "Feature", "properties": { "Provider Number": "014017", "FYB": "01-OCT-17", "FYE": "30-SEP-18", "STATUS": "As Submitted", "CTRL_TYPE": 9, "HOSP10_Name": "EASTPOINTE HOSPITAL", "Street_Addr": "7400 ROPER LANE", "PO_Box": null, "CITY_NAME": "DAPHNE", "ST_ABBR": "AL", "ZIP_CODE": "36526", "COUNTY_NAME": "BALDWIN", "source": "google" }, "geometry": { "type": "Point", "coordinates": [ -87.8953143, 30.6355144 ] } },
{ "type": "Feature", "properties": { "Provider Number": "014018", "FYB": "01-JAN-18", "FYE": "31-DEC-18", "STATUS": "As Submitted", "CTRL_TYPE": 6, "HOSP10_Name": "BEHAVIORAL HEALTH CENTERS", "Street_Addr": "5315 MILLENNIUM DRIVE NORTWEST", "PO_Box": null, "CITY_NAME": "HUBTSVILLE", "ST_ABBR": "AL", "ZIP_CODE": "35806", "COUNTY_NAME": "MADISON", "source": "google" }, "geometry": { "type": "Point", "coordinates": [ -86.6652796, 34.753357 ] } },
{ "type": "Feature", "properties": { "Provider Number": "020001", "FYB": "01-JAN-18", "FYE": "31-DEC-18", "STATUS": "As Submitted", "CTRL_TYPE": 1, "HOSP10_Name": "PROVIDENCE ALASKA MEDICAL CENTER", "Street_Addr": "3200 PROVIDENCE DRIVE", "PO_Box": "196604", "CITY_NAME": "ANCHORAGE", "ST_ABBR": "AK", "ZIP_CODE": "99519-6604", "COUNTY_NAME": "ANCHORAGE", "source": "google" }, "geometry": { "type": "Point", "coordinates": [ -149.8193142, 61.1856865 ] } },
{ "type": "Feature", "properties": { "Provider Number": "020006", "FYB": "01-JAN-18", "FYE": "31-DEC-18", "STATUS": "As Submitted", "CTRL_TYPE": 4, "HOSP10_Name": "MAT-SU REGIONAL MED CTR", "Street_Addr": "2500 S. WOODWORTH LOOP", "PO_Box": "1687", "CITY_NAME": "PALMER", "ST_ABBR": "AK", "ZIP_CODE": "99645", "COUNTY_NAME": null, "source": "google" }, "geometry": { "type": "Point", "coordinates": [ -149.258209099999988, 61.562392 ] } },
{ "type": "Feature", "properties": { "Provider Number": "020008", "FYB": "01-JUL-18", "FYE": "30-JUN-19", "STATUS": "As Submitted", "CTRL_TYPE": 8, "HOSP10_Name": "BARTLETT REGIONAL HOSPITAL", "Street_Addr": "3260 HOSPITAL DRIVE", "PO_Box": null, "CITY_NAME": "JUNEAU", "ST_ABBR": "AK", "ZIP_CODE": "99801", "COUNTY_NAME": "JUNEAU BOROUGH", "source": "google" }, "geometry": { "type": "Point", "coordinates": [ -134.46517510000001, 58.328735900000012 ] } },
{ "type": "Feature", "properties": { "Provider Number": "020012", "FYB": "01-JAN-18", "FYE": "31-DEC-18", "STATUS": "As Submitted", "CTRL_TYPE": 2, "HOSP10_Name": "FAIRBANKS MEMORIAL", "Street_Addr": "1650 COWLES ST", "PO_Box": null, "CITY_NAME": "FAIRBANKS", "ST_ABBR": "AK", "ZIP_CODE": "99701", "COUNTY_NAME": "NORTH STAR BOROUGH", "source": "google" }, "geometry": { "type": "Point", "coordinates": [ -147.738627799999989, 64.8312788 ] } },
{ "type": "Feature", "properties": { "Provider Number": "020017", "FYB": "01-JAN-18", "FYE": "31-DEC-18", "STATUS": "Amended", "CTRL_TYPE": 4, "HOSP10_Name": "ALASKA REGIONAL HOSPITAL", "Street_Addr": "2801 DEBAR ROAD", "PO_Box": null, "CITY_NAME": "ANCHORAGE", "ST_ABBR": "AK", "ZIP_CODE": "99508", "COUNTY_NAME": "MUNICIPALITY OF ANCHORAGE", "source": "google" }, "geometry": { "type": "Point", "coordinates": [ -149.8284617, 61.210843800000013 ] } },
{ "type": "Feature", "properties": { "Provider Number": "020018", "FYB": "01-OCT-17", "FYE": "30-SEP-18", "STATUS": "As Submitted", "CTRL_TYPE": 7, "HOSP10_Name": "YK DELTA REGIONAL HOSPITAL", "Street_Addr": "SUTE 3000", "PO_Box": "287", "CITY_NAME": "BETHEL", "ST_ABBR": "AK", "ZIP_CODE": "99559", "COUNTY_NAME": "BETHEL", "source": "google" }, "geometry": { "type": "Point", "coordinates": [ -161.7873258, 60.7879206 ] } },
{ "type": "Feature", "properties": { "Provider Number": "020024", "FYB": "01-JUL-18", "FYE": "30-JUN-19", "STATUS": "As Submitted", "CTRL_TYPE": 2, "HOSP10_Name": "CENTRAL PENINSULA GENERAL HOSPITAL", "Street_Addr": "250 HOSPITAL PLACE", "PO_Box": null, "CITY_NAME": "SOLDOTNA", "ST_ABBR": "AK", "ZIP_CODE": "99969", "COUNTY_NAME": "KENAI PENINSULA BOROUGH", "source": "google" }, "geometry": { "type": "Point", "coordinates": [ -151.078362, 60.4934156 ] } },
{ "type": "Feature", "properties": { "Provider Number": "020026", "FYB": "01-OCT-17", "FYE": "30-SEP-18", "STATUS": "As Submitted", "CTRL_TYPE": 7, "HOSP10_Name": "ALASKA NATIVE MEDICAL CENTER", "Street_Addr": "4315 DIPLOMACY DRIVE", "PO_Box": null, "CITY_NAME": "ANCHORAGE", "ST_ABBR": "AK", "ZIP_CODE": "99508", "COUNTY_NAME": "ANCHORAGE", "source": "google" }, "geometry": { "type": "Point", "coordinates": [ -149.800242700000013, 61.182452 ] } },
{ "type": "Feature", "properties": { "Provider Number": "020027", "FYB": "01-OCT-15", "FYE": "04-NOV-15", "STATUS": "Settled", "CTRL_TYPE": 7, "HOSP10_Name": "MT EDGECUMBE HOSPITAL", "Street_Addr": "222 TONGASS DRIVE", "PO_Box": null, "CITY_NAME": "SITKA", "ST_ABBR": "AK", "ZIP_CODE": "99835", "COUNTY_NAME": "SITKA", "source": "google" }, "geometry": { "type": "Point", "coordinates": [ -135.3552157, 57.0515542 ] } },
{ "type": "Feature", "properties": { "Provider Number": "021301", "FYB": "01-JAN-18", "FYE": "31-DEC-18", "STATUS": "As Submitted", "CTRL_TYPE": 12, "HOSP10_Name": "PROVIDENCE VALDEZ MEDICAL CENTER", "Street_Addr": "911 MEALS AVENUE", "PO_Box": null, "CITY_NAME": "VALDEZ", "ST_ABBR": "AK", "ZIP_CODE": "99686", "COUNTY_NAME": "VALDEZ CORDOVA", "source": "google" }, "geometry": { "type": "Point", "coordinates": [ -146.3458866, 61.136478100000012 ] } },
{ "type": "Feature", "properties": { "Provider Number": "021302", "FYB": "01-JAN-18", "FYE": "31-DEC-18", "STATUS": "As Submitted", "CTRL_TYPE": 1, "HOSP10_Name": "PROVIDENCE SEWARD MEDICAL & CARE CEN", "Street_Addr": "417 1ST AVENUE", "PO_Box": "365", "CITY_NAME": "SEWARD", "ST_ABBR": "AK", "ZIP_CODE": "99664-0365", "COUNTY_NAME": "KENAI PENINSULA BOROUGH", "source": "google" }, "geometry": { "type": "Point", "coordinates": [ -149.446311799999989, 60.104974799999987 ] } },
{ "type": "Feature", "properties": { "Provider Number": "021303", "FYB": "01-JUL-17", "FYE": "30-JUN-18", "STATUS": "As Submitted", "CTRL_TYPE": 2, "HOSP10_Name": "SITKA COMMUNITY HOSPITAL", "Street_Addr": "209 MOLLER AVENUE", "PO_Box": null, "CITY_NAME": "SITKA", "ST_ABBR": "AK", "ZIP_CODE": "99835", "COUNTY_NAME": "SITKA BOROUGH", "source": "google" }, "geometry": { "type": "Point", "coordinates": [ -135.3466803, 57.0597194 ] } },
{ "type": "Feature", "properties": { "Provider Number": "021304", "FYB": "01-JUL-18", "FYE": "30-JUN-19", "STATUS": "As Submitted", "CTRL_TYPE": 12, "HOSP10_Name": "PETERSBURG MEDICAL CENTER", "Street_Addr": "103 FRAM STREET", "PO_Box": "589", "CITY_NAME": "PETERSBURG", "ST_ABBR": "AK", "ZIP_CODE": "99833", "COUNTY_NAME": "WRANGELL-PETERSBURG", "source": "google" }, "geometry": { "type": "Point", "coordinates": [ -132.955461899999989, 56.8128691 ] } },
{ "type": "Feature", "properties": { "Provider Number": "021305", "FYB": "01-JUL-18", "FYE": "31-OCT-18", "STATUS": "As Submitted", "CTRL_TYPE": 12, "HOSP10_Name": "WRANGELL MEDICAL CENTER", "Street_Addr": "310 BENNETT STREET", "PO_Box": "1081", "CITY_NAME": "WRANGELL", "ST_ABBR": "AK", "ZIP_CODE": "99929", "COUNTY_NAME": "WRANGELL", "source": "google" }, "geometry": { "type": "Point", "coordinates": [ -132.376042500000011, 56.471571 ] } },
{ "type": "Feature", "properties": { "Provider Number": "021306", "FYB": "01-JAN-18", "FYE": "31-DEC-18", "STATUS": "As Submitted", "CTRL_TYPE": 1, "HOSP10_Name": "PROV. KODIAK ISLAND MEDICAL CENTER", "Street_Addr": "1915 E REZANOF DRIVE", "PO_Box": "1187", "CITY_NAME": "KODIAK", "ST_ABBR": "AK", "ZIP_CODE": "99615", "COUNTY_NAME": "KODIAK ISLAND BOROUGH", "source": "google" }, "geometry": { "type": "Point", "coordinates": [ -152.3756472, 57.8008837 ] } },
{ "type": "Feature", "properties": { "Provider Number": "021307", "FYB": "01-JAN-18", "FYE": "31-DEC-18", "STATUS": "As Submitted", "CTRL_TYPE": 6, "HOSP10_Name": "CORDOVA COMMUNITY MEDICAL CENTER", "Street_Addr": "602 CHASE STREET", "PO_Box": "160", "CITY_NAME": "CORDOVA", "ST_ABBR": "AK", "ZIP_CODE": "99574", "COUNTY_NAME": "CORDOVA", "source": "google" }, "geometry": { "type": "Point", "coordinates": [ -145.750531, 60.541335399999987 ] } },
{ "type": "Feature", "properties": { "Provider Number": "021308", "FYB": "01-OCT-17", "FYE": "30-SEP-18", "STATUS": "Amended", "CTRL_TYPE": 2, "HOSP10_Name": "NORTON SOUND REGIONAL HOSPITAL", "Street_Addr": "1000 GREG KRUSCHEK", "PO_Box": "966", "CITY_NAME": "NOME", "ST_ABBR": "AK", "ZIP_CODE": "99762", "COUNTY_NAME": "NOME BOROUGH", "source": "google" }, "geometry": { "type": "Point", "coordinates": [ -165.3784042, 64.4992304 ] } },
{ "type": "Feature", "properties": { "Provider Number": "021309", "FYB": "01-OCT-17", "FYE": "30-SEP-18", "STATUS": "As Submitted", "CTRL_TYPE": 7, "HOSP10_Name": "KANAKANAK HOSPITAL", "Street_Addr": "6000 KANAKANAK ROAD", "PO_Box": null, "CITY_NAME": "DILLINGHAM", "ST_ABBR": "AK", "ZIP_CODE": "99576", "COUNTY_NAME": "DILLINGHAM", "source": "google" }, "geometry": { "type": "Point", "coordinates": [ -158.5355046, 59.0000942 ] } },
{ "type": "Feature", "properties": { "Provider Number": "021310", "FYB": "01-OCT-17", "FYE": "30-SEP-18", "STATUS": "As Submitted", "CTRL_TYPE": 7, "HOSP10_Name": "MANIILAQ HEALTH CENTER", "Street_Addr": "436 5TH AVENUE", "PO_Box": "43", "CITY_NAME": "KOTZEBUE", "ST_ABBR": "AK", "ZIP_CODE": "99752", "COUNTY_NAME": "KOBUK", "source": "google" }, "geometry": { "type": "Point", "coordinates": [ -162.586869799999988, 66.8961387 ] } },
{ "type": "Feature", "properties": { "Provider Number": "021311", "FYB": "01-JUL-18", "FYE": "30-JUN-19", "STATUS": "As Submitted", "CTRL_TYPE": 1, "HOSP10_Name": "KETCHIKAN MEDICAL CENTER", "Street_Addr": "3100 TONGASS AVENUE", "PO_Box": null, "CITY_NAME": "KETCHIKAN", "ST_ABBR": "AK", "ZIP_CODE": "99901-5746", "COUNTY_NAME": "KETCHIKAN GATEWAY BOROUGH", "source": "google" }, "geometry": { "type": "Point", "coordinates": [ -131.686558600000012, 55.3535903 ] } },
{ "type": "Feature", "properties": { "Provider Number": "021312", "FYB": "01-OCT-17", "FYE": "30-SEP-18", "STATUS": "As Submitted", "CTRL_TYPE": 7, "HOSP10_Name": "SAMUEL SIMMONDS MEMORIAL HOSPITAL", "Street_Addr": "1296 AGVIK STREET", "PO_Box": "29", "CITY_NAME": "BARROW", "ST_ABBR": "AK", "ZIP_CODE": "99723", "COUNTY_NAME": "NORTH SLOPE BOROUGH", "source": "google" }, "geometry": { "type": "Point", "coordinates": [ -156.778980499999989, 71.2926476 ] } },
{ "type": "Feature", "properties": { "Provider Number": "021313", "FYB": "01-JUL-18", "FYE": "30-JUN-19", "STATUS": "As Submitted", "CTRL_TYPE": 12, "HOSP10_Name": "SOUTH PENINSULA HOSPITAL", "Street_Addr": "4300 BARTLETT ST.", "PO_Box": null, "CITY_NAME": "HOMER", "ST_ABBR": "AK", "ZIP_CODE": "99603", "COUNTY_NAME": null, "source": "google" }, "geometry": { "type": "Point", "coordinates": [ -151.550146899999987, 59.652592 ] } },
{ "type": "Feature", "properties": { "Provider Number": "021314", "FYB": "01-OCT-17", "FYE": "30-SEP-18", "STATUS": "As Submitted", "CTRL_TYPE": 7, "HOSP10_Name": "MT EDGECUMBE HOSPITAL", "Street_Addr": "222 TONGASS DRIVE", "PO_Box": null, "CITY_NAME": "SITKA", "ST_ABBR": "AK", "ZIP_CODE": "99835", "COUNTY_NAME": "SITKA", "source": "google" }, "geometry": { "type": "Point", "coordinates": [ -135.3552157, 57.0515542 ] } },
{ "type": "Feature", "properties": { "Provider Number": "022001", "FYB": "01-JAN-18", "FYE": "31-DEC-18", "STATUS": "As Submitted", "CTRL_TYPE": 5, "HOSP10_Name": "ALASKA SPECIALTY HOSPITAL  LLC", "Street_Addr": "4800 CORDOVA STREET", "PO_Box": null, "CITY_NAME": "ANCHORAGE", "ST_ABBR": "AK", "ZIP_CODE": "99503", "COUNTY_NAME": "ANCHORAGE", "source": "google" }, "geometry": { "type": "Point", "coordinates": [ -149.8798847, 61.1764732 ] } },
{ "type": "Feature", "properties": { "Provider Number": "024001", "FYB": "01-JAN-18", "FYE": "31-DEC-18", "STATUS": "Settled", "CTRL_TYPE": 2, "HOSP10_Name": "FRONTLINE HOSPITAL LLC", "Street_Addr": "2530 DE BARR ROAD", "PO_Box": null, "CITY_NAME": "ANCHORAGE", "ST_ABBR": "AK", "ZIP_CODE": "99508", "COUNTY_NAME": null, "source": "google" }, "geometry": { "type": "Point", "coordinates": [ -149.833529199999987, 61.2078883 ] } },
{ "type": "Feature", "properties": { "Provider Number": "024002", "FYB": "01-JUL-18", "FYE": "30-JUN-19", "STATUS": "As Submitted", "CTRL_TYPE": 11, "HOSP10_Name": "ALASKA PSYCHIATRIC INSTITUTE", "Street_Addr": "3700 PIPER ST", "PO_Box": null, "CITY_NAME": "ANCHORAGE", "ST_ABBR": "AK", "ZIP_CODE": "99508-4677", "COUNTY_NAME": "ANCHORAGE", "source": "google" }, "geometry": { "type": "Point", "coordinates": [ -149.829362300000014, 61.1852467 ] } },
{ "type": "Feature", "properties": { "Provider Number": "030001", "FYB": "01-JAN-17", "FYE": "30-APR-17", "STATUS": "As Submitted", "CTRL_TYPE": 4, "HOSP10_Name": "ABRAZO MARYVALE CAMPUS", "Street_Addr": "5102 WEST CAMPBELL AVE", "PO_Box": null, "CITY_NAME": "PHOENIX", "ST_ABBR": "AZ", "ZIP_CODE": "85031-1703", "COUNTY_NAME": "MARICOPA", "source": "google" }, "geometry": { "type": "Point", "coordinates": [ -112.1707601, 33.5030989 ] } },
{ "type": "Feature", "properties": { "Provider Number": "030002", "FYB": "01-JAN-18", "FYE": "31-DEC-18", "STATUS": "As Submitted", "CTRL_TYPE": 2, "HOSP10_Name": "BANNER UNIVERSITY MEDICAL CENTER PHX", "Street_Addr": "1111 EAST MCDOWELL ROAD", "PO_Box": null, "CITY_NAME": "PHOENIX", "ST_ABBR": "AZ", "ZIP_CODE": "85006", "COUNTY_NAME": "MARICOPA", "source": "google" }, "geometry": { "type": "Point", "coordinates": [ -112.0575015, 33.4646895 ] } },
{ "type": "Feature", "properties": { "Provider Number": "030006", "FYB": "01-JAN-18", "FYE": "31-DEC-18", "STATUS": "As Submitted", "CTRL_TYPE": 2, "HOSP10_Name": "TUCSON MEDICAL CENTER", "Street_Addr": "5301 E GRANT ROAD", "PO_Box": null, "CITY_NAME": "TUCSON", "ST_ABBR": "AZ", "ZIP_CODE": "85712", "COUNTY_NAME": "PIMA", "source": "google" }, "geometry": { "type": "Point", "coordinates": [ -110.8798847, 32.2529912 ] } },
{ "type": "Feature", "properties": { "Provider Number": "030007", "FYB": "01-JUL-18", "FYE": "30-JUN-19", "STATUS": "As Submitted", "CTRL_TYPE": 2, "HOSP10_Name": "VERDE VALLEY MEDICAL CENTER", "Street_Addr": "269 SOUTH CANDY LANE", "PO_Box": null, "CITY_NAME": "COTTONWOOD", "ST_ABBR": "AZ", "ZIP_CODE": "86326", "COUNTY_NAME": "YAVAPAI", "source": "google" }, "geometry": { "type": "Point", "coordinates": [ -112.0288197, 34.7355271 ] } },
{ "type": "Feature", "properties": { "Provider Number": "030010", "FYB": "01-OCT-17", "FYE": "30-SEP-18", "STATUS": "As Submitted", "CTRL_TYPE": 1, "HOSP10_Name": "CARONDELET ST. MARYS HOSPITAL", "Street_Addr": "1601 W. ST. MARYS ROAD", "PO_Box": null, "CITY_NAME": "TUCSON", "ST_ABBR": "AZ", "ZIP_CODE": "85745", "COUNTY_NAME": "PIMA", "source": "google" }, "geometry": { "type": "Point", "coordinates": [ -111.000127, 32.2273302 ] } },
{ "type": "Feature", "properties": { "Provider Number": "030011", "FYB": "01-OCT-17", "FYE": "30-SEP-18", "STATUS": "As Submitted", "CTRL_TYPE": 1, "HOSP10_Name": "CARONDELET ST. JOSEPH HOSPITAL", "Street_Addr": "350 NORTH WILMOT ROAD", "PO_Box": null, "CITY_NAME": "TUCSON", "ST_ABBR": "AZ", "ZIP_CODE": "85732", "COUNTY_NAME": "PIMA", "source": "google" }, "geometry": { "type": "Point", "coordinates": [ -110.8553091, 32.2266477 ] } },
{ "type": "Feature", "properties": { "Provider Number": "030012", "FYB": "01-JAN-18", "FYE": "31-DEC-18", "STATUS": "As Submitted", "CTRL_TYPE": 2, "HOSP10_Name": "YAVAPAI REGIONAL MEDICAL CENTER", "Street_Addr": "1003 WILLOW CREEK ROAD", "PO_Box": null, "CITY_NAME": "PRESCOTT", "ST_ABBR": "AZ", "ZIP_CODE": "86301", "COUNTY_NAME": "YAVAPAI", "source": "google" }, "geometry": { "type": "Point", "coordinates": [ -112.4807204, 34.559646 ] } },
{ "type": "Feature", "properties": { "Provider Number": "030013", "FYB": "01-OCT-17", "FYE": "30-SEP-18", "STATUS": "As Submitted", "CTRL_TYPE": 2, "HOSP10_Name": "YUMA REGIONAL MEDICAL CENTER", "Street_Addr": "2400 S AVENUE A", "PO_Box": null, "CITY_NAME": "YUMA", "ST_ABBR": "AZ", "ZIP_CODE": "85364", "COUNTY_NAME": "YUMA", "source": "google" }, "geometry": { "type": "Point", "coordinates": [ -114.6361827, 32.6821523 ] } },
{ "type": "Feature", "properties": { "Provider Number": "030014", "FYB": "01-JAN-18", "FYE": "31-DEC-18", "STATUS": "As Submitted", "CTRL_TYPE": 2, "HOSP10_Name": "JOHN C LINCOLN MEDICAL CENTER", "Street_Addr": "250 WEST DUNLAP", "PO_Box": null, "CITY_NAME": "PHOENIX", "ST_ABBR": "AZ", "ZIP_CODE": "85020", "COUNTY_NAME": "MARICOPA", "source": "google" }, "geometry": { "type": "Point", "coordinates": [ -112.0705095, 33.5692161 ] } },
{ "type": "Feature", "properties": { "Provider Number": "030016", "FYB": "01-JAN-18", "FYE": "31-DEC-18", "STATUS": "As Submitted", "CTRL_TYPE": 2, "HOSP10_Name": "BANNER CASA GRANDE MEDICAL CENTER", "Street_Addr": "1800 EAST FLORENCE BLVD", "PO_Box": null, "CITY_NAME": "CASA GRANDE", "ST_ABBR": "AZ", "ZIP_CODE": "85122", "COUNTY_NAME": null, "source": "google" }, "geometry": { "type": "Point", "coordinates": [ -111.7097636, 32.8814007 ] } },
{ "type": "Feature", "properties": { "Provider Number": "030022", "FYB": "01-JUL-17", "FYE": "30-JUN-18", "STATUS": "As Submitted", "CTRL_TYPE": 11, "HOSP10_Name": "MARICOPA MEDICAL CENTER", "Street_Addr": "2601 EAST ROOSEVELT STREET", "PO_Box": null, "CITY_NAME": "PHOENIX", "ST_ABBR": "AZ", "ZIP_CODE": "85008", "COUNTY_NAME": "MARICOPA", "source": "google" }, "geometry": { "type": "Point", "coordinates": [ -112.0261191, 33.4573098 ] } },
{ "type": "Feature", "properties": { "Provider Number": "030023", "FYB": "01-JUL-18", "FYE": "30-JUN-19", "STATUS": "As Submitted", "CTRL_TYPE": 2, "HOSP10_Name": "FLAGSTAFF MEDICAL CENTER", "Street_Addr": "1200 NORTH BEAVER", "PO_Box": null, "CITY_NAME": "FLAGSTAFF", "ST_ABBR": "AZ", "ZIP_CODE": "86001", "COUNTY_NAME": "COCONINO", "source": "google" }, "geometry": { "type": "Point", "coordinates": [ -111.643986, 35.20832 ] } },
{ "type": "Feature", "properties": { "Provider Number": "030024", "FYB": "01-JUL-17", "FYE": "30-JUN-18", "STATUS": "Amended", "CTRL_TYPE": 2, "HOSP10_Name": "ST. JOSEPHS HOSPITAL & MEDICAL CTR", "Street_Addr": "350 WEST THOMAS ROAD", "PO_Box": null, "CITY_NAME": "PHOENIX", "ST_ABBR": "AZ", "ZIP_CODE": "85013", "COUNTY_NAME": "MARICOPA", "source": "google" }, "geometry": { "type": "Point", "coordinates": [ -112.0796807, 33.4820477 ] } },
{ "type": "Feature", "properties": { "Provider Number": "030030", "FYB": "01-APR-18", "FYE": "31-MAR-19", "STATUS": "As Submitted", "CTRL_TYPE": 4, "HOSP10_Name": "ABRAZO CENTRAL CAMPUS", "Street_Addr": "2000 WEST BETHANY HOME ROAD", "PO_Box": null, "CITY_NAME": "PHOENIX", "ST_ABBR": "AZ", "ZIP_CODE": "85015-2443", "COUNTY_NAME": "MARICOPA", "source": "google" }, "geometry": { "type": "Point", "coordinates": [ -112.102, 33.5250095 ] } },
{ "type": "Feature", "properties": { "Provider Number": "030033", "FYB": "01-JAN-18", "FYE": "22-JUL-18", "STATUS": "Amended", "CTRL_TYPE": 2, "HOSP10_Name": "BANNER PAYSON MEDICAL CENTER", "Street_Addr": "807 S. PONDEROSA", "PO_Box": null, "CITY_NAME": "PAYSON", "ST_ABBR": "AZ", "ZIP_CODE": "85541", "COUNTY_NAME": "GILA", "source": "google" }, "geometry": { "type": "Point", "coordinates": [ -111.320838, 34.2299506 ] } },
{ "type": "Feature", "properties": { "Provider Number": "030036", "FYB": "01-JUL-18", "FYE": "31-JAN-19", "STATUS": "As Submitted", "CTRL_TYPE": 2, "HOSP10_Name": "CHANDLER REGIONAL MEDICAL CENTER", "Street_Addr": "475 SOUTH DOBSON ROAD", "PO_Box": null, "CITY_NAME": "CHANDLER", "ST_ABBR": "AZ", "ZIP_CODE": "85224", "COUNTY_NAME": "MARICOPA", "source": "google" }, "geometry": { "type": "Point", "coordinates": [ -111.8745708, 33.2972365 ] } },
{ "type": "Feature", "properties": { "Provider Number": "030037", "FYB": "01-JUN-18", "FYE": "31-MAY-19", "STATUS": "As Submitted", "CTRL_TYPE": 6, "HOSP10_Name": "ST. LUKES MEDICAL CENTER", "Street_Addr": "1800 EAST VAN BUREN STREET", "PO_Box": null, "CITY_NAME": "PHOENIX", "ST_ABBR": "AZ", "ZIP_CODE": "85006", "COUNTY_NAME": "MARICOPA", "source": "google" }, "geometry": { "type": "Point", "coordinates": [ -112.0423562, 33.4544851 ] } },
{ "type": "Feature", "properties": { "Provider Number": "030038", "FYB": "01-JAN-18", "FYE": "31-DEC-18", "STATUS": "As Submitted", "CTRL_TYPE": 2, "HOSP10_Name": "SCOTTSDALE OSBORN MEDICAL CENTER", "Street_Addr": "7400 EAST OSBORN ROAD", "PO_Box": null, "CITY_NAME": "SCOTTSDALE", "ST_ABBR": "AZ", "ZIP_CODE": "85251", "COUNTY_NAME": "MARICOPA", "source": "google" }, "geometry": { "type": "Point", "coordinates": [ -111.9229949, 33.4883996 ] } },
{ "type": "Feature", "properties": { "Provider Number": "030043", "FYB": "01-MAY-18", "FYE": "30-APR-19", "STATUS": "As Submitted", "CTRL_TYPE": 4, "HOSP10_Name": "CANYON VISTA MEDICAL CENTER", "Street_Addr": "5700 E. HIGHWAY 90", "PO_Box": null, "CITY_NAME": "SIERRA VISTA", "ST_ABBR": "AZ", "ZIP_CODE": "85635", "COUNTY_NAME": "COCHISE", "source": "google" }, "geometry": { "type": "Point", "coordinates": [ -110.2300732, 31.552791 ] } },
{ "type": "Feature", "properties": { "Provider Number": "030055", "FYB": "01-JUL-18", "FYE": "30-JUN-19", "STATUS": "As Submitted", "CTRL_TYPE": 2, "HOSP10_Name": "KINGMAN REGIONAL MEDICAL CENTER", "Street_Addr": "3269 STOCKTON HILL ROAD", "PO_Box": null, "CITY_NAME": "KINGMAN", "ST_ABBR": "AZ", "ZIP_CODE": "86401", "COUNTY_NAME": "MOHAVE", "source": "google" }, "geometry": { "type": "Point", "coordinates": [ -114.0376508, 35.2198757 ] } },
{ "type": "Feature", "properties": { "Provider Number": "030061", "FYB": "01-JAN-18", "FYE": "31-DEC-18", "STATUS": "Amended", "CTRL_TYPE": 2, "HOSP10_Name": "BANNER BOSWELL MEDICAL CENTER", "Street_Addr": "10401 THUNDERBIRD BLVD.", "PO_Box": null, "CITY_NAME": "SUN CITY", "ST_ABBR": "AZ", "ZIP_CODE": "85351", "COUNTY_NAME": "MARICOPA", "source": "google" }, "geometry": { "type": "Point", "coordinates": [ -112.2842245, 33.6036764 ] } },
{ "type": "Feature", "properties": { "Provider Number": "030062", "FYB": "01-JAN-18", "FYE": "31-DEC-18", "STATUS": "As Submitted", "CTRL_TYPE": 11, "HOSP10_Name": "SUMMIT HEALTHCARE", "Street_Addr": "2200 SHOW LOW LAKE RD.", "PO_Box": null, "CITY_NAME": "SHOW LOW", "ST_ABBR": "AZ", "ZIP_CODE": "85901", "COUNTY_NAME": "NAVAJO", "source": "google" }, "geometry": { "type": "Point", "coordinates": [ -110.0175142, 34.2028859 ] } },
{ "type": "Feature", "properties": { "Provider Number": "030064", "FYB": "01-JAN-18", "FYE": "31-DEC-18", "STATUS": "As Submitted", "CTRL_TYPE": 2, "HOSP10_Name": "BANNER UNIVERSITY MED CENTER TUCSON", "Street_Addr": "1501 NORTH CAMPBELL AVE", "PO_Box": null, "CITY_NAME": "TUCSON", "ST_ABBR": "AZ", "ZIP_CODE": "85724-0001", "COUNTY_NAME": "PIMA", "source": "google" }, "geometry": { "type": "Point", "coordinates": [ -110.9459159, 32.240795 ] } },
{ "type": "Feature", "properties": { "Provider Number": "030065", "FYB": "01-JAN-18", "FYE": "31-DEC-18", "STATUS": "As Submitted", "CTRL_TYPE": 2, "HOSP10_Name": "BANNER DESERT MEDICAL CENTER", "Street_Addr": "1400 SOUTH DOBSON ROAD", "PO_Box": null, "CITY_NAME": "MESA", "ST_ABBR": "AZ", "ZIP_CODE": "85202", "COUNTY_NAME": "MARICOPA", "source": "google" }, "geometry": { "type": "Point", "coordinates": [ -111.8773528, 33.3899517 ] } },
{ "type": "Feature", "properties": { "Provider Number": "030067", "FYB": "01-OCT-12", "FYE": "23-OCT-13", "STATUS": "Settled", "CTRL_TYPE": 2, "HOSP10_Name": "LA PAZ REGIONAL HOSPITAL", "Street_Addr": "1200 MOJAVE RD.", "PO_Box": null, "CITY_NAME": "PARKER", "ST_ABBR": "AZ", "ZIP_CODE": "85344", "COUNTY_NAME": "LA PAZ", "source": "google" }, "geometry": { "type": "Point", "coordinates": [ -114.2853397, 34.1364016 ] } },
{ "type": "Feature", "properties": { "Provider Number": "030068", "FYB": "01-JAN-18", "FYE": "31-DEC-18", "STATUS": "As Submitted", "CTRL_TYPE": 2, "HOSP10_Name": "MT. GRAHAM REGIONAL MEDICAL CENTER", "Street_Addr": "1600 TWENTIETH AVENUE", "PO_Box": null, "CITY_NAME": "SAFFORD", "ST_ABBR": "AZ", "ZIP_CODE": "85548", "COUNTY_NAME": "GRAHAM", "source": "google" }, "geometry": { "type": "Point", "coordinates": [ -109.7352458, 32.8228057 ] } },
{ "type": "Feature", "properties": { "Provider Number": "030069", "FYB": "01-SEP-17", "FYE": "31-AUG-18", "STATUS": "As Submitted", "CTRL_TYPE": 4, "HOSP10_Name": "HAVASU REGIONAL MEDICAL CENTER", "Street_Addr": "101 CIVIC CENTER LANE", "PO_Box": null, "CITY_NAME": "LAKE HAVASU CITY", "ST_ABBR": "AZ", "ZIP_CODE": "86403", "COUNTY_NAME": "MOHAVE", "source": "google" }, "geometry": { "type": "Point", "coordinates": [ -114.3387237, 34.4804744 ] } },
{ "type": "Feature", "properties": { "Provider Number": "030071", "FYB": "01-OCT-17", "FYE": "30-SEP-18", "STATUS": "As Submitted", "CTRL_TYPE": 7, "HOSP10_Name": "FORT DEFIANCE INDIAN HOSPITAL", "Street_Addr": "CORNER OF N12 AND N7", "PO_Box": "649", "CITY_NAME": "FORT DEFIANCE", "ST_ABBR": "AZ", "ZIP_CODE": "86504", "COUNTY_NAME": "APACHE", "source": "google" }, "geometry": { "type": "Point", "coordinates": [ -109.0483992, 35.759317 ] } },
{ "type": "Feature", "properties": { "Provider Number": "030073", "FYB": "01-OCT-17", "FYE": "30-SEP-18", "STATUS": "As Submitted", "CTRL_TYPE": 7, "HOSP10_Name": "TUBA CITY REG HEALTH CARE CORP", "Street_Addr": "HIGHWAY 264", "PO_Box": "600", "CITY_NAME": "TUBA CITY", "ST_ABBR": "AZ", "ZIP_CODE": "86045", "COUNTY_NAME": "COCONINO", "source": "google" }, "geometry": { "type": "Point", "coordinates": [ -111.2369947, 36.1359847 ] } },
{ "type": "Feature", "properties": { "Provider Number": "030074", "FYB": "01-OCT-17", "FYE": "30-SEP-18", "STATUS": "As Submitted", "CTRL_TYPE": 7, "HOSP10_Name": "TON", "Street_Addr": "HWY 86 & TOPAWA RD", "PO_Box": "548", "CITY_NAME": "SELLS", "ST_ABBR": "AZ", "ZIP_CODE": "85634-0548", "COUNTY_NAME": "PIMA", "source": "google" }, "geometry": { "type": "Point", "coordinates": [ -112.0240216, 32.0483892 ] } },
{ "type": "Feature", "properties": { "Provider Number": "030077", "FYB": "01-OCT-17", "FYE": "30-SEP-18", "STATUS": "As Submitted", "CTRL_TYPE": 7, "HOSP10_Name": "SAN CARLOS APACHE HEALTHCARE CORP", "Street_Addr": "103 MEDICINE WAY ROAD", "PO_Box": null, "CITY_NAME": "PERIDOT", "ST_ABBR": "AZ", "ZIP_CODE": "85542", "COUNTY_NAME": "GRAHAM", "source": "google" }, "geometry": { "type": "Point", "coordinates": [ -110.4164493, 33.2955388 ] } },
{ "type": "Feature", "properties": { "Provider Number": "030078", "FYB": "01-OCT-17", "FYE": "30-SEP-18", "STATUS": "As Submitted", "CTRL_TYPE": 7, "HOSP10_Name": "PHOENIX INDIAN MEDICAL CENTER", "Street_Addr": "4121 N. 16TH STREET", "PO_Box": null, "CITY_NAME": "PHOENIX", "ST_ABBR": "AZ", "ZIP_CODE": "85016", "COUNTY_NAME": "MARICOPA", "source": "google" }, "geometry": { "type": "Point", "coordinates": [ -112.0486713, 33.4972055 ] } },
{ "type": "Feature", "properties": { "Provider Number": "030083", "FYB": "01-OCT-17", "FYE": "30-SEP-18", "STATUS": "As Submitted", "CTRL_TYPE": 4, "HOSP10_Name": "ABRAZO SCOTTSDALE CAMPUS", "Street_Addr": "3929 EAST BELL ROAD", "PO_Box": null, "CITY_NAME": "PHOENIX", "ST_ABBR": "AZ", "ZIP_CODE": "85032", "COUNTY_NAME": "MARICOPA", "source": "google" }, "geometry": { "type": "Point", "coordinates": [ -111.9979775, 33.6393068 ] } },
{ "type": "Feature", "properties": { "Provider Number": "030084", "FYB": "01-OCT-17", "FYE": "30-SEP-18", "STATUS": "As Submitted", "CTRL_TYPE": 7, "HOSP10_Name": "CHINLE COMPREHENSIVE CARE FACILITY", "Street_Addr": "1 MILE N OF HWY 191", "PO_Box": "DRAWER PH", "CITY_NAME": "CHINLE", "ST_ABBR": "AZ", "ZIP_CODE": "86503", "COUNTY_NAME": "NAVAJO", "source": "google" }, "geometry": { "type": "Point", "coordinates": [ -109.6076963, 36.1575812 ] } },
{ "type": "Feature", "properties": { "Provider Number": "030085", "FYB": "01-OCT-17", "FYE": "30-SEP-18", "STATUS": "Amended", "CTRL_TYPE": 4, "HOSP10_Name": "NORTHWEST MEDICAL CENTER", "Street_Addr": "6200 NORTH LA CHOLLA", "PO_Box": null, "CITY_NAME": "TUCSON", "ST_ABBR": "AZ", "ZIP_CODE": "85741", "COUNTY_NAME": "PIMA", "source": "google" }, "geometry": { "type": "Point", "coordinates": [ -111.0090883, 32.3195158 ] } },
{ "type": "Feature", "properties": { "Provider Number": "030087", "FYB": "01-JAN-18", "FYE": "31-DEC-18", "STATUS": "As Submitted", "CTRL_TYPE": 2, "HOSP10_Name": "SCOTTSDALE SHEA MEDICAL CENTER", "Street_Addr": "10450 N 92ND STREET", "PO_Box": null, "CITY_NAME": "SCOTTSDALE", "ST_ABBR": "AZ", "ZIP_CODE": "85258", "COUNTY_NAME": "MARICOPA", "source": "google" }, "geometry": { "type": "Point", "coordinates": [ -111.8828247, 33.5783193 ] } },
{ "type": "Feature", "properties": { "Provider Number": "030088", "FYB": "01-JAN-18", "FYE": "31-DEC-18", "STATUS": "As Submitted", "CTRL_TYPE": 2, "HOSP10_Name": "BANNER BAYWOOD MEDICAL CENTER", "Street_Addr": "6644 BAYWOOD AVENUE", "PO_Box": "6239", "CITY_NAME": "MESA", "ST_ABBR": "AZ", "ZIP_CODE": "85206", "COUNTY_NAME": "MARICOPA", "source": "google" }, "geometry": { "type": "Point", "coordinates": [ -111.6900242, 33.4099968 ] } },
{ "type": "Feature", "properties": { "Provider Number": "030089", "FYB": "01-JAN-18", "FYE": "31-DEC-18", "STATUS": "As Submitted", "CTRL_TYPE": 2, "HOSP10_Name": "BANNER THUNDERBIRD MEDICAL CENTER", "Street_Addr": "5555 WEST THUNDERBIRD ROAD", "PO_Box": null, "CITY_NAME": "GLENDALE", "ST_ABBR": "AZ", "ZIP_CODE": "85308", "COUNTY_NAME": "MARICOPA", "source": "google" }, "geometry": { "type": "Point", "coordinates": [ -112.1796847, 33.6092249 ] } },
{ "type": "Feature", "properties": { "Provider Number": "030092", "FYB": "01-JAN-18", "FYE": "31-DEC-18", "STATUS": "As Submitted", "CTRL_TYPE": 2, "HOSP10_Name": "DEER VALLEY MEDICAL CENTER", "Street_Addr": "19829 N 27TH AVENUE", "PO_Box": null, "CITY_NAME": "PHOENIX", "ST_ABBR": "AZ", "ZIP_CODE": "85027", "COUNTY_NAME": "MARICOPA", "source": "google" }, "geometry": { "type": "Point", "coordinates": [ -112.1153758, 33.6663202 ] } },
{ "type": "Feature", "properties": { "Provider Number": "030093", "FYB": "01-JAN-18", "FYE": "31-DEC-18", "STATUS": "As Submitted", "CTRL_TYPE": 2, "HOSP10_Name": "BANNER DEL E WEBB MEDICAL CENTER", "Street_Addr": "14502 WEST MEEKER BOULEVARD", "PO_Box": null, "CITY_NAME": "SUN CITY WEST", "ST_ABBR": "AZ", "ZIP_CODE": "85375", "COUNTY_NAME": "MARICOPA", "source": "google" }, "geometry": { "type": "Point", "coordinates": [ -112.3728842, 33.6599234 ] } },
{ "type": "Feature", "properties": { "Provider Number": "030094", "FYB": "01-APR-18", "FYE": "31-MAR-19", "STATUS": "As Submitted", "CTRL_TYPE": 4, "HOSP10_Name": "ABRAZO ARROWHEAD CAMPUS", "Street_Addr": "18701 NORTH 67TH AVENUE", "PO_Box": null, "CITY_NAME": "GLENDALE", "ST_ABBR": "AZ", "ZIP_CODE": "85308-7100", "COUNTY_NAME": "MARICOPA", "source": "google" }, "geometry": { "type": "Point", "coordinates": [ -112.2014811, 33.6545091 ] } },
{ "type": "Feature", "properties": { "Provider Number": "030100", "FYB": "01-JUL-12", "FYE": "07-NOV-12", "STATUS": "Settled", "CTRL_TYPE": 4, "HOSP10_Name": "CARONDELET HEART AND VASCULAR INSTIT", "Street_Addr": "4888 NORTH STONE DRIVE", "PO_Box": null, "CITY_NAME": "TUCSON", "ST_ABBR": "AZ", "ZIP_CODE": "85704", "COUNTY_NAME": "PIMA", "source": "google" }, "geometry": { "type": "Point", "coordinates": [ -110.9994737, 32.2279897 ] } },
{ "type": "Feature", "properties": { "Provider Number": "030101", "FYB": "01-SEP-17", "FYE": "31-AUG-18", "STATUS": "As Submitted", "CTRL_TYPE": 4, "HOSP10_Name": "WESTERN ARIZONA REGIONAL MEDICAL CEN", "Street_Addr": "2735 SILVER CREEK ROAD", "PO_Box": null, "CITY_NAME": "BULLHEAD CITY", "ST_ABBR": "AZ", "ZIP_CODE": "86442", "COUNTY_NAME": "MOHAVE", "source": "google" }, "geometry": { "type": "Point", "coordinates": [ -114.5547973, 35.1103607 ] } },
{ "type": "Feature", "properties": { "Provider Number": "030103", "FYB": "01-JAN-18", "FYE": "31-DEC-18", "STATUS": "As Submitted", "CTRL_TYPE": 2, "HOSP10_Name": "MAYO CLINIC HOSPITAL", "Street_Addr": "5777 EAST MAYO BLVD", "PO_Box": null, "CITY_NAME": "PHOENIX", "ST_ABBR": "AZ", "ZIP_CODE": "85054", "COUNTY_NAME": "MARICOPA", "source": "google" }, "geometry": { "type": "Point", "coordinates": [ -111.9564536, 33.6591315 ] } },
{ "type": "Feature", "properties": { "Provider Number": "030105", "FYB": "01-JAN-18", "FYE": "31-DEC-18", "STATUS": "As Submitted", "CTRL_TYPE": 2, "HOSP10_Name": "BANNER HEART HOSPITAL", "Street_Addr": "6750 EAST BAYWOOD AVENUE", "PO_Box": null, "CITY_NAME": "MESA", "ST_ABBR": "AZ", "ZIP_CODE": "85206", "COUNTY_NAME": "MARICOPA", "source": "google" }, "geometry": { "type": "Point", "coordinates": [ -111.688973, 33.4112414 ] } },
{ "type": "Feature", "properties": { "Provider Number": "030107", "FYB": "01-JAN-18", "FYE": "31-DEC-18", "STATUS": "Amended", "CTRL_TYPE": 4, "HOSP10_Name": "AZ SPINE & JOINT HOSPITAL", "Street_Addr": "4620 EAST BASELINE ROAD", "PO_Box": null, "CITY_NAME": "MESA", "ST_ABBR": "AZ", "ZIP_CODE": "85206", "COUNTY_NAME": "MARICOPA", "source": "google" }, "geometry": { "type": "Point", "coordinates": [ -111.9960458, 33.2971611 ] } },
{ "type": "Feature", "properties": { "Provider Number": "030108", "FYB": "01-JAN-18", "FYE": "31-DEC-18", "STATUS": "As Submitted", "CTRL_TYPE": 5, "HOSP10_Name": "THE CORE INSTITUTE SPECIALTY HOSPITA", "Street_Addr": "6501 N 19TH AVE", "PO_Box": null, "CITY_NAME": "PHOENIX", "ST_ABBR": "AZ", "ZIP_CODE": "85015", "COUNTY_NAME": "MARICOPA", "source": "google" }, "geometry": { "type": "Point", "coordinates": [ -112.0991257, 33.5321501 ] } },
{ "type": "Feature", "properties": { "Provider Number": "030110", "FYB": "01-MAY-18", "FYE": "30-APR-19", "STATUS": "As Submitted", "CTRL_TYPE": 4, "HOSP10_Name": "ABRAZO WEST CAMPUS", "Street_Addr": "13677 WEST MCDOWELL ROAD", "PO_Box": null, "CITY_NAME": "GOODYEAR", "ST_ABBR": "AZ", "ZIP_CODE": "85395", "COUNTY_NAME": "MARICOPA", "source": "google" }, "geometry": { "type": "Point", "coordinates": [ -112.3520988, 33.4625907 ] } },
{ "type": "Feature", "properties": { "Provider Number": "030111", "FYB": "01-JAN-18", "FYE": "31-DEC-18", "STATUS": "As Submitted", "CTRL_TYPE": 2, "HOSP10_Name": "BANNER UNIVERSITY MED CENTER SOUTH", "Street_Addr": "2800 EAST AJO WAY", "PO_Box": null, "CITY_NAME": "TUCSON", "ST_ABBR": "AZ", "ZIP_CODE": "85713", "COUNTY_NAME": "PIMA", "source": "google" }, "geometry": { "type": "Point", "coordinates": [ -110.92933, 32.175466 ] } },
{ "type": "Feature", "properties": { "Provider Number": "030112", "FYB": "01-JAN-18", "FYE": "31-DEC-18", "STATUS": "As Submitted", "CTRL_TYPE": 5, "HOSP10_Name": "ARIZONA ORTHOPEDIC SURGICAL HOSPITAL", "Street_Addr": "2905 WEST WARNER ROAD", "PO_Box": null, "CITY_NAME": "CHANDLER", "ST_ABBR": "AZ", "ZIP_CODE": "85225", "COUNTY_NAME": "MARICOPA", "source": "google" }, "geometry": { "type": "Point", "coordinates": [ -111.8913029, 33.3339299 ] } },
{ "type": "Feature", "properties": { "Provider Number": "030113", "FYB": "01-OCT-17", "FYE": "30-SEP-18", "STATUS": "As Submitted", "CTRL_TYPE": 7, "HOSP10_Name": "USPHS HOSPITAL-WHITERIVER", "Street_Addr": "200 W HOSPITAL DRIVE", "PO_Box": "PO BOX 86", "CITY_NAME": "WHITERIVER", "ST_ABBR": "AZ", "ZIP_CODE": "85941", "COUNTY_NAME": "NAVAJO", "source": "google" }, "geometry": { "type": "Point", "coordinates": [ -109.9577386, 33.8758829 ] } },
{ "type": "Feature", "properties": { "Provider Number": "030114", "FYB": "01-OCT-17", "FYE": "30-SEP-18", "STATUS": "As Submitted", "CTRL_TYPE": 4, "HOSP10_Name": "NORTHWEST MEDICAL CENTER ORO VALLEY", "Street_Addr": "1551 E TANGERINE ROAD", "PO_Box": null, "CITY_NAME": "ORO VALLEY", "ST_ABBR": "AZ", "ZIP_CODE": "85755", "COUNTY_NAME": "PIMA", "source": "google" }, "geometry": { "type": "Point", "coordinates": [ -110.9485922, 32.4292586 ] } },
{ "type": "Feature", "properties": { "Provider Number": "030115", "FYB": "01-JAN-18", "FYE": "31-DEC-18", "STATUS": "As Submitted", "CTRL_TYPE": 2, "HOSP10_Name": "BANNER ESTRELLA MEDICAL CENTER", "Street_Addr": "9201 WEST THOMAS ROAD", "PO_Box": null, "CITY_NAME": "PHOENIX", "ST_ABBR": "AZ", "ZIP_CODE": "85037", "COUNTY_NAME": "MARICOPA", "source": "google" }, "geometry": { "type": "Point", "coordinates": [ -112.2575889, 33.4784822 ] } },
{ "type": "Feature", "properties": { "Provider Number": "030117", "FYB": "01-DEC-17", "FYE": "30-NOV-18", "STATUS": "As Submitted", "CTRL_TYPE": 4, "HOSP10_Name": "VALLEY VIEW MEDICAL CENTER", "Street_Addr": "5330 ARIZONA 95", "PO_Box": null, "CITY_NAME": "FORT MOHAVE", "ST_ABBR": "AZ", "ZIP_CODE": "86426", "COUNTY_NAME": "MOHAVE", "source": "google" }, "geometry": { "type": "Point", "coordinates": [ -114.5966873, 35.0022697 ] } },
{ "type": "Feature", "properties": { "Provider Number": "030118", "FYB": "01-JAN-16", "FYE": "31-JUL-16", "STATUS": "Settled", "CTRL_TYPE": 2, "HOSP10_Name": "YAVAPAI REGIONAL MEDICAL CENTER-EAST", "Street_Addr": "7700 EAST FLORENTINE ROAD", "PO_Box": null, "CITY_NAME": "PRESCOTT VALLEY", "ST_ABBR": "AZ", "ZIP_CODE": "86314", "COUNTY_NAME": "YAVAPAI", "source": "google" }, "geometry": { "type": "Point", "coordinates": [ -112.3299904, 34.5904773 ] } },
{ "type": "Feature", "properties": { "Provider Number": "030119", "FYB": "01-JUL-18", "FYE": "30-JUN-19", "STATUS": "As Submitted", "CTRL_TYPE": 1, "HOSP10_Name": "MERCY GILBERT MEDICAL CENTER", "Street_Addr": "3555 S. VAL VISTA DRIVE", "PO_Box": null, "CITY_NAME": "GILBERT", "ST_ABBR": "AZ", "ZIP_CODE": "85296", "COUNTY_NAME": "MARICOPA", "source": "google" }, "geometry": { "type": "Point", "coordinates": [ -111.7523611, 33.2869787 ] } },
{ "type": "Feature", "properties": { "Provider Number": "030120", "FYB": "01-JAN-17", "FYE": "31-DEC-17", "STATUS": "As Submitted", "CTRL_TYPE": 4, "HOSP10_Name": "GILBERT HOSPITAL", "Street_Addr": "5656 S. POWER RD.", "PO_Box": null, "CITY_NAME": "GLBERT", "ST_ABBR": "AZ", "ZIP_CODE": "85295", "COUNTY_NAME": null, "source": "google" }, "geometry": { "type": "Point", "coordinates": [ -111.687252, 33.3138293 ] } },
{ "type": "Feature", "properties": { "Provider Number": "030121", "FYB": "01-JUL-18", "FYE": "30-JUN-19", "STATUS": "As Submitted", "CTRL_TYPE": 6, "HOSP10_Name": "MOUNTAIN VISTA MEDICAL CENTER", "Street_Addr": "1301 SOUTH CRIMSON ROAD", "PO_Box": null, "CITY_NAME": "MESA", "ST_ABBR": "AZ", "ZIP_CODE": "85209", "COUNTY_NAME": "MARICOPA", "source": "google" }, "geometry": { "type": "Point", "coordinates": [ -111.6120874, 33.3914626 ] } },
{ "type": "Feature", "properties": { "Provider Number": "030122", "FYB": "01-JAN-18", "FYE": "31-DEC-18", "STATUS": "As Submitted", "CTRL_TYPE": 2, "HOSP10_Name": "BANNER GATEWAY MEDICAL CENTER", "Street_Addr": "1900 NORTH HIGHLEY ROAD", "PO_Box": null, "CITY_NAME": "GILBERT", "ST_ABBR": "AZ", "ZIP_CODE": "85234", "COUNTY_NAME": "MARICOPA", "source": "google" }, "geometry": { "type": "Point", "coordinates": [ -111.7238977, 33.3845901 ] } },
{ "type": "Feature", "properties": { "Provider Number": "030123", "FYB": "01-JAN-18", "FYE": "31-DEC-18", "STATUS": "As Submitted", "CTRL_TYPE": 2, "HOSP10_Name": "SCOTTSALE THOMPSON PEAK MED CTR", "Street_Addr": "7400 EAST THOMPSON PEAK PKWY", "PO_Box": null, "CITY_NAME": "SCOTTSDALE", "ST_ABBR": "AZ", "ZIP_CODE": "85255", "COUNTY_NAME": "MARICOPA", "source": "google" }, "geometry": { "type": "Point", "coordinates": [ -111.9222203, 33.6707207 ] } },
{ "type": "Feature", "properties": { "Provider Number": "030126", "FYB": "01-JAN-13", "FYE": "26-APR-13", "STATUS": "Settled", "CTRL_TYPE": 4, "HOSP10_Name": "ARIZONA REGIONAL MEDICAL CENTER", "Street_Addr": "515 N MESA DRIVE", "PO_Box": null, "CITY_NAME": "MESA", "ST_ABBR": "AZ", "ZIP_CODE": "85201", "COUNTY_NAME": "MARICOPA", "source": "google" }, "geometry": { "type": "Point", "coordinates": [ -111.8214994, 33.424912600000013 ] } },
{ "type": "Feature", "properties": { "Provider Number": "030128", "FYB": "01-OCT-10", "FYE": "30-SEP-11", "STATUS": "Settled", "CTRL_TYPE": 4, "HOSP10_Name": "HUALAPAI MOUNTAIN MEDICAL CENTER", "Street_Addr": "3801 SANTA ROSA DRIVE", "PO_Box": null, "CITY_NAME": "KINGMAN", "ST_ABBR": "AZ", "ZIP_CODE": "86401", "COUNTY_NAME": "MOHAVE", "source": "google" }, "geometry": { "type": "Point", "coordinates": [ -113.9861576, 35.2188672 ] } },
{ "type": "Feature", "properties": { "Provider Number": "030129", "FYB": "01-JAN-11", "FYE": "07-SEP-11", "STATUS": "Settled", "CTRL_TYPE": 4, "HOSP10_Name": "FLORENCE COMM. HEALTHCARE", "Street_Addr": "450 WEST ADAMSVILLE RD.", "PO_Box": null, "CITY_NAME": "FLORENCE", "ST_ABBR": "AZ", "ZIP_CODE": "85132", "COUNTY_NAME": "PINAL", "source": "google" }, "geometry": { "type": "Point", "coordinates": [ -111.393773, 33.0267773 ] } },
{ "type": "Feature", "properties": { "Provider Number": "030130", "FYB": "01-JAN-18", "FYE": "31-DEC-18", "STATUS": "As Submitted", "CTRL_TYPE": 2, "HOSP10_Name": "BANNER IRONWOOD MEDICAL CENTER", "Street_Addr": "37000 NORTH GANTZEL ROAD", "PO_Box": null, "CITY_NAME": "QUEEN CREEK", "ST_ABBR": "AZ", "ZIP_CODE": "85140", "COUNTY_NAME": "PINAL", "source": "google" }, "geometry": { "type": "Point", "coordinates": [ -111.5656344, 33.2144262 ] } },